YR_EST,LAT_DEG,LONG_DEG,ELEV,PostOffice,State,County,DateEstablished,DateDiscontinued,ZipCode
1639,42.3584308,-71.0597732,14,BOSTON,MA,SUFFOLK COUNTY,11/05/1639,,2205
1727,38.9784453,-76.4921829,13,ANNAPOLIS,MD,ANNE ARUNDEL COUNTY,00/00/1727,,21401
1738,37.2707022,-76.7074571,25,WILLIAMSBURG,VA,INDEPENDENT CITY,00/00/1738,,23185
1754,41.8239891,-71.4128343,2,PROVIDENCE,RI,PROVIDENCE COUNTY,00/00/1754,,2904
1759,42.6525793,-73.7562317,45,ALBANY,NY,ALBANY COUNTY,00/00/1759,,12288
1764,43.661471,-70.2553259,19,PORTLAND,ME,CUMBERLAND COUNTY,01/05/1764,,4101
1765,41.3775996,-71.8272911,11,WESTERLY,RI,WASHINGTON COUNTY,00/00/1765,,2891
1772,41.3556539,-72.0995209,17,NEW LONDON,CT,NEW LONDON COUNTY,00/00/1772,,6320
1773,42.6792602,-70.8411612,8,IPSWICH,MA,ESSEX COUNTY,00/00/1773,,1938
1773,39.952335,-75.163789,12,PHILADELPHIA,PA,PHILADELPHIA COUNTY,00/00/1773,,19104
1773,42.500096,-70.8578253,18,MARBLEHEAD,MA,ESSEX COUNTY,07/05/1773,,1945
1773,43.0717552,-70.7625532,6,PORTSMOUTH,NH,ROCKINGHAM COUNTY,10/00/1773,,3801
1773,32.7765656,-79.9309216,6,CHARLESTON,SC,CHARLESTON COUNTY,11/00/1773,,29423
1774,36.057938,-76.6077213,3,EDENTON,NC,CHOWAN COUNTY,00/00/1774,,27932
1774,37.0298687,-76.3452218,1,HAMPTON,VA,INDEPENDENT CITY,05/00/1774,,23670
1775,42.1014831,-72.589811,25,SPRINGFIELD,MA,HAMPDEN COUNTY,00/00/1775,,1101
1775,42.2625932,-71.8022934,147,WORCESTER,MA,WORCESTER COUNTY,00/00/1775,,1613
1775,38.8048356,-77.0469214,11,ALEXANDRIA,VA,INDEPENDENT CITY,05/08/1775,,22313
1775,39.2903848,-76.6121893,10,BALTIMORE,MD,INDEPENDENT CITY,05/08/1775,,21202
1775,38.5676202,-77.3280382,11,DUMFRIES,VA,PRINCE WILLIAM COUNTY,05/08/1775,,22026
1775,41.1412078,-73.2637258,10,FAIRFIELD,CT,FAIRFIELD COUNTY,05/08/1775,,6430
1775,37.8929082,-79.4378166,376,FREDERICKSBURG,VA,INDEPENDENT CITY,05/08/1775,,22401
1775,38.9048338,-77.0624775,19,GEORGETOWN,DC,,05/08/1775,12/24/1877,
1775,41.7637111,-72.6850932,18,HARTFORD,CT,HARTFORD COUNTY,05/08/1775,,6101
1775,41.5623209,-72.6506488,12,MIDDLETOWN,CT,MIDDLESEX COUNTY,05/08/1775,,6457
1775,41.0534302,-73.5387341,7,STAMFORD,CT,FAIRFIELD COUNTY,05/08/1775,,6904
1775,40.2170534,-74.7429385,18,TRENTON,NJ,MERCER COUNTY,05/08/1775,,8650
1775,39.7459467,-75.5465889,28,WILMINGTON,DE,NEW CASTLE COUNTY,05/08/1775,,19850
1776,38.9392779,-76.9338631,15,BLADENSBURG,MD,PRINCE GEORGES COUNTY,01/05/1776,,20710
1776,40.1006661,-74.8518311,6,BRISTOL,PA,BUCKS COUNTY,01/05/1776,,19007
1776,40.0378755,-76.3055144,110,LANCASTER,PA,LANCASTER COUNTY,04/05/1776,,17604
1777,41.5356492,-73.8990252,67,FISHKILL,NY,DUTCHESS COUNTY,02/27/1777,,12524
1777,40.7967667,-74.4815438,110,MORRISTOWN,NJ,MORRIS COUNTY,03/06/1777,,7960
1782,,,,NORWICH TOWN,CT,NEW LONDON COUNTY,00/00/1782,3/31/07,
1782,37.5537575,-77.4602617,64,RICHMOND,VA,INDEPENDENT CITY,00/00/1782,,23232
1782,41.6603788,-71.4558911,48,EAST GREENWICH,RI,KENT COUNTY,07/05/1782,,2818
1783,36.9823709,-76.6310662,9,SMITHFIELD,VA,ISLE OF WIGHT COUNTY,07/05/1783,,23430
1786,42.3953617,-73.6978983,77,KINDERHOOK,NY,COLUMBIA COUNTY,04/05/1786,,12106
1786,41.9267591,-73.9126354,61,RHINEBECK,NY,DUTCHESS COUNTY,04/05/1786,,12572
1787,37.766531,-77.3702584,35,HANOVER,VA,HANOVER COUNTY,02/27/1787,,23069
1788,40.4406248,-79.9958864,233,PITTSBURGH,PA,ALLEGHENY COUNTY,07/07/1788,,15290
1788,39.9375911,-77.6611022,188,CHAMBERSBURG,PA,FRANKLIN COUNTY,10/05/1788,,17201
1788,39.9625984,-76.727745,118,YORK,PA,YORK COUNTY,10/05/1788,,17405
1788,39.158168,-75.5243682,9,DOVER,DE,KENT COUNTY,11/00/1788,,19901
1789,40.0186921,-78.5039069,336,BEDFORD,PA,BEDFORD COUNTY,02/14/1789,,15522
1789,39.5492792,-76.091617,12,HAVRE DE GRACE,MD,HARFORD COUNTY,07/00/1789,,21078
1790,38.7742826,-76.0763305,11,EASTON,MD,TALBOT COUNTY,01/12/1790,,21601
1790,35.1084931,-77.0441143,3,NEW BERN,NC,CRAVEN COUNTY,06/01/1790,,28560
1790,35.5465517,-77.0521742,2,WASHINGTON,NC,BEAUFORT COUNTY,06/02/1790,,27889
1790,39.2998339,-75.6046494,10,SMYRNA,DE,KENT COUNTY,08/30/1790,,19977
1791,42.981477,-70.9478343,10,EXETER,NH,ROCKINGHAM COUNTY,03/17/1791,,3833
1791,42.8614748,-71.6253487,79,AMHERST,NH,HILLSBOROUGH COUNTY,03/18/1791,,3031
1791,39.1856597,-78.1633341,216,WINCHESTER,VA,INDEPENDENT CITY,03/24/1791,,22601
1791,44.4758825,-73.212072,60,BURLINGTON,VT,CHITTENDEN COUNTY,10/19/1791,,5401
1791,40.5576045,-74.2845911,9,WOODBRIDGE,NJ,MIDDLESEX COUNTY,12/16/1791,,7095
1791,41.7003713,-73.9209701,62,POUGHKEEPSIE,NY,DUTCHESS COUNTY,12/20/1791,,12601
1792,39.4142688,-77.4105409,87,FREDERICK,MD,FREDERICK COUNTY,00/00/1792,,21701
1792,36.3957098,-76.9319035,13,WINTON,NC,HERTFORD COUNTY,01/01/1792,,27986
1792,42.5584284,-70.8800491,11,BEVERLY,MA,ESSEX COUNTY,01/10/1792,,1915
1792,40.6751032,-74.0095841,2,RED HOOK,NY,DUTCHESS COUNTY,01/23/1792,,12571
1792,41.6770463,-71.2661597,35,BRISTOL,RI,BRISTOL COUNTY,02/11/1792,,2809
1792,41.4020382,-74.3243191,133,GOSHEN,NY,ORANGE COUNTY,06/08/1792,,10924
1792,40.8617302,-78.7303073,503,BETHLEHEM,PA,NORTHAMPTON COUNTY,06/12/1792,,18016
1792,38.3676263,-76.7830228,3,CHAPTICO,MD,SAINT MARYS COUNTY,06/12/1792,,20621
1792,41.1272847,-79.5408798,347,EASTON,PA,NORTHAMPTON COUNTY,06/12/1792,,18045
1792,39.0090017,-75.4657542,5,FREDERICA,DE,KENT COUNTY,06/12/1792,,19946
1792,42.6159286,-70.6619888,16,GLOUCESTER,MA,ESSEX COUNTY,06/12/1792,,1930
1792,42.2528649,-73.790959,25,HUDSON,NY,COLUMBIA COUNTY,06/12/1792,,12534
1792,38.0295744,-76.580789,13,KINSALE,VA,WESTMORELAND COUNTY,06/12/1792,,22488
1792,40.3409251,-76.4113497,143,LEBANON,PA,LEBANON COUNTY,06/12/1792,,17042
1792,43.1636875,-73.0723269,269,MANCHESTER,VT,BENNINGTON COUNTY,06/12/1792,,5254
1792,38.0951317,-76.8274644,44,MONTROSS,VA,WESTMORELAND COUNTY,06/12/1792,,22520
1792,41.2834563,-70.0994605,13,NANTUCKET,MA,NANTUCKET COUNTY,06/12/1792,,2554
1792,41.6362152,-70.934205,29,NEW BEDFORD,MA,BRISTOL COUNTY,06/12/1792,,2748
1792,38.5137325,-77.0183082,6,PORT TOBACCO,MD,CHARLES COUNTY,06/12/1792,,20677
1792,40.3356483,-75.9268747,78,READING,PA,BERKS COUNTY,06/12/1792,,19603
1792,40.9012101,-74.5143232,173,ROCKAWAY,NJ,MORRIS COUNTY,06/12/1792,,7866
1792,43.6106237,-72.9726065,197,RUTLAND,VT,RUTLAND COUNTY,06/12/1792,,5701
1792,35.6709727,-80.4742261,234,SALISBURY,NC,ROWAN COUNTY,06/12/1792,,28144
1792,38.3606736,-75.5993692,7,SALISBURY,MD,WICOMICO COUNTY,06/12/1792,,21801
1792,37.9254135,-76.8591301,7,TAPPAHANNOCK,VA,ESSEX COUNTY,06/12/1792,,22560
1792,41.900101,-71.0897675,5,TAUNTON,MA,BRISTOL COUNTY,06/12/1792,,2780
1792,37.6376402,-76.5743976,6,URBANNA,VA,MIDDLESEX COUNTY,06/12/1792,,23175
1792,44.1672771,-73.2540112,59,VERGENNES,VT,ADDISON COUNTY,06/12/1792,,5491
1792,36.3984804,-78.1552706,118,WARRENTON,NC,WARREN COUNTY,06/12/1792,,27589
1792,43.4803494,-72.3848131,101,WINDSOR,VT,WINDSOR COUNTY,06/12/1792,,5089
1792,39.8381691,-75.1526774,17,WOODBURY,NJ,GLOUCESTER COUNTY,06/12/1792,,8096
1792,39.4562099,-77.9638869,138,MARTINSBURG,WV,BERKELEY COUNTY,06/30/1792,,25401
1792,41.256483,-74.3598755,158,WARWICK,NY,ORANGE COUNTY,06/30/1792,,10990
1792,35.8968236,-77.5358049,13,TARBORO,NC,EDGECOMBE COUNTY,07/18/1792,,27886
1792,37.7698602,-76.4663391,24,LANCASTER,VA,LANCASTER COUNTY,07/23/1792,,22503
1792,40.2737002,-76.8844179,101,HARRISBURG,PA,DAUPHIN COUNTY,08/13/1792,,17105
1792,39.427337,-75.2340768,3,BRIDGETON,NJ,CUMBERLAND COUNTY,08/14/1792,,8302
1792,41.7001095,-70.2994664,11,BARNSTABLE,MA,BARNSTABLE COUNTY,08/16/1792,,2630
1792,36.7098335,-81.9773482,629,ABINGDON,VA,WASHINGTON COUNTY,08/20/1792,,24210
1792,38.0293059,-78.4766781,142,CHARLOTTESVILLE,VA,ALBEMARLE COUNTY,08/20/1792,,22906
1792,37.6456329,-84.7721702,300,DANVILLE,KY,BOYLE COUNTY,08/20/1792,,40422
1792,39.6417629,-77.7199932,164,HAGERSTOWN,MD,WASHINGTON COUNTY,08/20/1792,,21740
1792,37.7840208,-79.4428157,324,LEXINGTON,VA,INDEPENDENT CITY,08/20/1792,,24450
1792,36.407317,-83.0054423,392,ROGERSVILLE,TN,HAWKINS COUNTY,08/20/1792,,37857
1792,37.3526369,-75.945765,9,EASTVILLE,VA,NORTHAMPTON COUNTY,09/12/1792,,23347
1792,37.9695672,-75.463812,11,HORNTOWN,VA,ACCOMACK COUNTY,09/12/1792,,23395
1792,35.0526641,-78.8783585,31,FAYETTEVILLE,NC,CUMBERLAND COUNTY,09/22/1792,,28302
1792,36.190158,-76.4660519,3,HERTFORD,NC,PERQUIMANS COUNTY,09/27/1792,,27944
1792,39.7137238,-75.6093709,10,NEWPORT,DE,NEW CASTLE COUNTY,10/01/1792,6/30/45,
1792,33.4709702,-81.9748379,43,AUGUSTA,GA,RICHMOND COUNTY,10/02/1792,,30901
1792,34.0007104,-81.0348144,88,COLUMBIA,SC,RICHLAND COUNTY,10/02/1792,,29201
1792,41.3359327,-71.9059042,9,STONINGTON,CT,NEW LONDON COUNTY,11/28/1792,,6378
1792,32.5887936,-80.9273299,3,COOSAWHATCHIE,SC,JASPER COUNTY,12/00/1792,12/3/65,29912
1793,41.2917652,-72.3761956,9,OLD SAYBROOK,CT,MIDDLESEX COUNTY,01/29/1793,,6475
1793,44.0153371,-73.16734,123,MIDDLEBURY,VT,ADDISON COUNTY,02/28/1793,,5753
1793,43.9145244,-69.9653278,19,BRUNSWICK,ME,CUMBERLAND COUNTY,03/20/1793,,4011
1793,43.2081366,-71.5375718,83,CONCORD,NH,MERRIMACK COUNTY,03/20/1793,,3301
1793,41.9270367,-73.9973608,60,KINGSTON,NY,ULSTER COUNTY,03/20/1793,,12401
1793,39.449556,-75.7163207,21,MIDDLETOWN,DE,NEW CASTLE COUNTY,03/20/1793,,19709
1793,41.9584367,-70.6672577,23,PLYMOUTH,MA,PLYMOUTH COUNTY,03/20/1793,,2360
1793,41.2814842,-73.4981792,223,RIDGEFIELD,CT,FAIRFIELD COUNTY,03/20/1793,,6877
1793,41.7589954,-70.4939163,4,SANDWICH,MA,BARNSTABLE COUNTY,04/25/1793,,2563
1793,42.8142432,-73.9395687,74,SCHENECTADY,NY,SCHENECTADY COUNTY,04/25/1793,,12301
1793,41.2889866,-72.6817616,14,GUILFORD,CT,NEW HAVEN COUNTY,07/01/1793,,6437
1793,35.8546039,-77.0555114,21,WILLIAMSTON,NC,MARTIN COUNTY,10/01/1793,,27892
1794,37.3343079,-79.5230877,306,BEDFORD,VA,BEDFORD COUNTY,00/00/1794,,24523
1794,,,,GOLDSON'S,VA,BRUNSWICK COUNTY,00/00/1794,04/13/1807,
1794,37.5176453,-76.9788557,41,NEW KENT,VA,NEW KENT COUNTY,00/00/1794,,23124
1794,33.4918203,-80.8556476,74,ORANGEBURG,SC,ORANGEBURG COUNTY,00/00/1794,,29115
1794,43.905346,-72.1400896,120,ORFORD,NH,GRAFTON COUNTY,00/00/1794,,3777
1794,40.7047883,-78.8305848,491,UNIONTOWN,PA,FAYETTE COUNTY,00/00/1794,,15401
1794,37.9587447,-76.7580139,40,WARSAW,VA,RICHMOND COUNTY,00/00/1794,,22572
1794,43.2386868,-72.4245329,119,CHARLESTOWN,NH,SULLIVAN COUNTY,01/01/1794,,3603
1794,41.7142665,-72.6525922,25,WETHERSFIELD,CT,HARTFORD COUNTY,01/22/1794,7/1/23,
1794,42.2139817,-72.1022991,219,BROOKFIELD,MA,WORCESTER COUNTY,05/22/1794,,1506
1794,38.6411854,-83.744365,165,MAYSVILLE,KY,MASON COUNTY,05/24/1794,,41056
1794,41.4570418,-72.8231552,27,WALLINGFORD,CT,NEW HAVEN COUNTY,05/26/1794,,6492
1794,39.1620036,-84.4568863,191,CINCINNATI,OH,HAMILTON COUNTY,06/07/1794,,45234
1794,40.0639616,-80.7209149,203,WHEELING,WV,OHIO COUNTY,06/07/1794,,26003
1794,38.2009055,-84.8732836,155,FRANKFORT,KY,FRANKLIN COUNTY,06/11/1794,,40601
1794,37.9886892,-84.4777153,295,LEXINGTON,KY,FAYETTE COUNTY,06/11/1794,,40511
1794,,,,WASHINGTON,KY,MASON COUNTY,06/11/1794,,41096
1794,41.2787104,-72.5275904,11,CLINTON,CT,MIDDLESEX COUNTY,07/01/1794,,6413
1794,39.8947975,-80.1617292,300,MORRISVILLE,PA,BUCKS COUNTY,07/10/1794,,19067
1794,35.7201463,-79.1772371,124,PITTSBORO,NC,CHATHAM COUNTY,08/00/1794,,27312
1794,39.744544,-77.0880385,192,LITTLESTOWN,PA,ADAMS COUNTY,08/04/1794,,17340
1794,37.4137536,-79.1422464,192,LYNCHBURG,VA,INDEPENDENT CITY,08/08/1794,,24505
1794,44.3106241,-69.7794897,38,AUGUSTA,ME,KENNEBEC COUNTY,08/12/1794,,4330
1794,39.0839973,-77.1527578,137,ROCKVILLE,MD,MONTGOMERY COUNTY,08/19/1794,,20850
1794,39.457334,-75.6613184,18,ODESSA,DE,NEW CASTLE COUNTY,08/20/1794,,19730
1794,35.9606384,-83.9207392,276,KNOXVILLE,TN,KNOX COUNTY,08/21/1794,,37901
1794,36.1823602,-80.3381077,249,BETHANIA,NC,FORSYTH COUNTY,08/22/1794,,27010
1794,35.2270869,-80.8431268,232,CHARLOTTE,NC,MECKLENBURG COUNTY,08/22/1794,,28204
1794,44.3878547,-68.7997522,25,CASTINE,ME,HANCOCK COUNTY,09/00/1794,,4421
1794,40.9378777,-72.3009158,13,BRIDGEHAMPTON,NY,SUFFOLK COUNTY,09/25/1794,,11932
1794,40.9978773,-72.2925819,8,SAG HARBOR,NY,SUFFOLK COUNTY,09/25/1794,,11963
1794,40.8559314,-73.2006687,18,SMITHTOWN,NY,SUFFOLK COUNTY,09/25/1794,,11787
1794,41.5514979,-70.6147519,2,FALMOUTH,MA,BARNSTABLE COUNTY,10/00/1794,,2540
1794,42.7006303,-74.924321,374,COOPERSTOWN,NY,OTSEGO COUNTY,10/01/1794,,13326
1794,42.2417669,-70.8897676,5,HINGHAM,MA,PLYMOUTH COUNTY,10/01/1794,,2043
1794,37.8017879,-80.4456303,634,LEWISBURG,WV,GREENBRIER COUNTY,10/01/1794,,24901
1794,42.5250906,-71.759794,122,LEOMINSTER,MA,WORCESTER COUNTY,10/07/1794,,1453
1794,44.478412,-68.0383389,25,GOULDSBORO,ME,HANCOCK COUNTY,10/08/1794,5/28/71,
1794,36.4423754,-77.0985753,25,MURFREESBORO,NC,HERTFORD COUNTY,10/14/1794,,27855
1794,40.1778887,-74.5834887,25,ALLENTOWN,NJ,MONMOUTH COUNTY,10/20/1794,,8501
1794,39.5359406,-76.3482931,118,BEL AIR,MD,HARFORD COUNTY,11/00/1794,,21014
1794,36.7659709,-78.9283441,141,HALIFAX,VA,HALIFAX COUNTY,11/02/1794,,24558
1794,42.8689552,-76.9777436,135,GENEVA,NY,ONTARIO COUNTY,11/05/1794,,14456
1794,42.4556475,-71.6731246,94,LANCASTER,MA,WORCESTER COUNTY,11/12/1794,,1523
1794,42.1056525,-71.5522859,111,MENDON,MA,WORCESTER COUNTY,11/15/1794,,1756
1794,44.0345102,-72.0639782,191,HAVERHILL,NH,GRAFTON COUNTY,11/25/1794,,3765
1794,34.3807012,-81.0864776,163,WINNSBORO,SC,FAIRFIELD COUNTY,11/26/1794,,29180
1794,36.8256943,-79.3980806,222,CHATHAM,VA,PITTSYLVANIA COUNTY,12/01/1794,,24531
1794,42.4639722,-73.3964977,212,NEW LEBANON,NY,COLUMBIA COUNTY,12/02/1794,,12125
1794,43.7570166,-71.6881337,157,PLYMOUTH,NH,GRAFTON COUNTY,12/18/1794,,3264
1795,,,,GEE'S BRIDGE,VA,BRUNSWICK COUNTY,00/00/1795,00/00/1813,
1795,34.6182199,-79.0086425,39,LUMBERTON,NC,ROBESON COUNTY,00/00/1795,,28358
1795,42.6584254,-71.1370012,55,ANDOVER,MA,ESSEX COUNTY,01/01/1795,,1810
1795,39.9009252,-77.5210994,292,BROWNSVILLE,PA,FAYETTE COUNTY,01/01/1795,,15417
1795,42.8742314,-77.2880382,240,CANANDAIGUA,NY,ONTARIO COUNTY,01/01/1795,,14424
1795,38.4731815,-77.9966639,126,CULPEPER,VA,CULPEPER COUNTY,01/01/1795,,22701
1795,41.8139905,-71.1203229,4,DIGHTON,MA,BRISTOL COUNTY,01/01/1795,,2715
1795,41.3890052,-70.5133599,2,EDGARTOWN,MA,DUKES COUNTY,01/01/1795,,2539
1795,40.5123258,-74.8593318,53,FLEMINGTON,NJ,HUNTERDON COUNTY,01/01/1795,,8822
1795,41.8823187,-72.9770488,137,NEW HARTFORD,CT,LITCHFIELD COUNTY,01/01/1795,,6057
1795,44.0792316,-72.0584234,141,NEWBURY,VT,ORANGE COUNTY,01/01/1795,,5051
1795,40.6726014,-74.7473849,66,OLDWICK,NJ,HUNTERDON COUNTY,01/01/1795,,8858
1795,35.772096,-78.6386145,96,RALEIGH,NC,WAKE COUNTY,01/01/1795,,27611
1795,44.5147971,-68.812809,28,SANDY POINT,ME,WALDO COUNTY,01/01/1795,,4972
1795,37.6284581,-80.2414491,620,SWEET SPRINGS,WV,MONROE COUNTY,01/01/1795,9/6/97,24980
1795,41.4542786,-70.6036395,14,VINEYARD HAVEN,MA,DUKES COUNTY,01/01/1795,,2568
1795,39.6578773,-77.1744279,154,TANEYTOWN,MD,CARROLL COUNTY,02/03/1795,,21787
1795,34.8526176,-82.3940105,307,GREENVILLE,SC,GREENVILLE COUNTY,02/22/1795,,29602
1795,43.1009031,-75.2326641,139,UTICA,NY,ONEIDA COUNTY,02/25/1795,,13504
1795,43.885632,-70.3317195,91,GRAY,ME,CUMBERLAND COUNTY,03/09/1795,,4039
1795,42.2417653,-71.166164,33,DEDHAM,MA,NORFOLK COUNTY,04/01/1795,,2026
1795,40.41483,-74.2295891,15,MATAWAN,NJ,MONMOUTH COUNTY,04/01/1795,,7747
1795,34.6517733,-82.7837515,260,PENDLETON,SC,ANDERSON COUNTY,04/01/1795,,29670
1795,40.2023089,-77.4780419,188,WASHINGTON,PA,WASHINGTON COUNTY,04/01/1795,,15301
1795,42.8706392,-71.9517459,219,PETERBOROUGH,NH,HILLSBOROUGH COUNTY,04/27/1795,,3458
1795,41.2223194,-73.0564953,8,MILFORD,CT,NEW HAVEN COUNTY,05/09/1795,,6460
1795,38.8951118,-77.0363658,7,WASHINGTON,DC,DISTRICT OF COLUMBIA,06/24/1795,,20090
1795,39.8309293,-77.2310955,162,GETTYSBURG,PA,ADAMS COUNTY,07/01/1795,,17325
1795,36.9976403,-79.8919774,345,ROCKY MOUNT,VA,FRANKLIN COUNTY,07/01/1795,,24151
1795,41.2459149,-75.8813075,167,WILKES-BARRE,PA,LUZERNE COUNTY,07/01/1795,,18701
1795,42.7284117,-73.6917851,10,TROY,NY,RENSSELAER COUNTY,08/31/1795,,12180
1795,43.1978624,-70.8736698,19,DOVER,NH,STRATFORD COUNTY,10/01/1795,,3820
1795,43.1339741,-70.9264477,15,DURHAM,NH,STRAFFORD COUNTY,10/01/1795,,3824
1795,39.0623301,-78.9694723,247,MOOREFIELD,WV,HARDY COUNTY,10/14/1795,,26836
1795,41.5034271,-74.0104179,39,NEWBURGH,NY,ORANGE COUNTY,10/27/1795,,12550
1795,36.1658899,-86.7844432,170,NASHVILLE,TN,DAVIDSON COUNTY,11/01/1795,,37229
1795,42.6861973,-72.0439686,304,WINCHENDON,MA,WORCESTER COUNTY,12/07/1795,,1475
1796,42.1131572,-70.8119859,16,HANOVER,MA,PLYMOUTH COUNTY,01/06/1796,,2339
1796,40.0134066,-80.0711662,270,FAIRFIELD,PA,ADAMS COUNTY,01/13/1796,,17320
1796,40.9645293,-76.8844101,143,LEWISBURG,PA,UNION COUNTY,01/14/1796,,17837
1796,43.3036958,-70.7333893,43,NORTH BERWICK,ME,YORK COUNTY,01/28/1796,,3906
1796,42.466763,-70.9494939,11,LYNN,MA,ESSEX COUNTY,03/16/1796,,1901
1796,42.0986867,-75.9179738,264,BINGHAMTON,NY,BROOME COUNTY,04/01/1796,,13902
1796,44.189794,-70.1403312,95,GREENE,ME,ANDROSCOGGIN COUNTY,04/01/1796,,4236
1796,42.5486871,-75.2451685,349,MORRIS,NY,OTSEGO COUNTY,04/01/1796,,13808
1796,38.2454106,-78.1108343,159,ORANGE,VA,ORANGE COUNTY,04/01/1796,,22960
1796,39.3420431,-78.7566839,250,ROMNEY,WV,HAMPSHIRE COUNTY,04/01/1796,,26757
1796,43.2345292,-70.8095018,34,SOUTH BERWICK,ME,YORK COUNTY,04/01/1796,,3908
1796,44.4592341,-69.6775451,53,VASSALBORO,ME,KENNEBEC COUNTY,04/01/1796,,4989
1796,38.4742898,-76.5063419,34,SAINT LEONARD,MD,CALVERT COUNTY,04/06/1796,,20685
1796,40.9312099,-73.8987469,25,YONKERS,NY,WESTCHESTER COUNTY,05/12/1796,,10701
1796,36.1631575,-82.8309861,463,GREENEVILLE,TN,GREENE COUNTY,06/17/1796,,37743
1796,33.0015407,-82.4112377,98,LOUISVILLE,GA,JEFFERSON COUNTY,06/20/1796,,30434
1796,43.8570242,-70.1031057,50,FREEPORT,ME,CUMBERLAND COUNTY,08/19/1796,,4032
1796,40.0064958,-75.7032742,71,DOWNINGTOWN,PA,CHESTER COUNTY,09/10/1796,9/30/26,
1796,45.0781324,-67.1094283,20,ROBBINSTON,ME,WASHINGTON COUNTY,09/16/1796,,4671
1797,42.2770362,-72.4009176,185,BELCHERTOWN,MA,HAMPSHIRE COUNTY,02/13/1797,,1007
1797,40.691492,-73.8056894,13,JAMAICA,NY,QUEENS COUNTY,03/01/1797,,11431
1797,42.974803,-72.521756,114,PUTNEY,VT,WINDHAM COUNTY,03/20/1797,,5346
1797,42.9828438,-76.3404868,208,MARCELLUS,NY,ONONDAGA COUNTY,04/17/1797,,13108
1797,40.884267,-72.3895296,8,SOUTHAMPTON,NY,SUFFOLK COUNTY,05/10/1797,,11968
1797,38.4195689,-76.9033041,3,NEWPORT,MD,CHARLES COUNTY,06/19/1797,6/30/59,
1797,42.1959225,-73.3620564,215,GREAT BARRINGTON,MA,BERKSHIRE COUNTY,08/22/1797,,1230
1797,41.6820563,-69.9597376,4,CHATHAM,MA,BARNSTABLE COUNTY,08/24/1797,,2633
1797,41.8301081,-69.973907,13,EASTHAM,MA,BARNSTABLE COUNTY,08/24/1797,,2642
1797,44.0164588,-70.9806238,131,FRYEBURG,ME,OXFORD COUNTY,08/24/1797,,4037
1797,44.3878453,-69.9667188,86,READFIELD,ME,KENNEBEC COUNTY,08/24/1797,,4355
1797,41.993437,-70.0497457,3,TRURO,MA,BARNSTABLE COUNTY,08/24/1797,,2666
1797,41.9376051,-70.0327996,6,WELLFLEET,MA,BARNSTABLE COUNTY,08/24/1797,,2667
1797,41.3625937,-74.2712613,146,CHESTER,NY,ORANGE COUNTY,08/28/1797,,10918
1797,,,,NEW ANTRIM,NY,ROCKLAND COUNTY,08/28/1797,11/00/1807,
1797,40.8997903,-77.4533235,358,AARONSBURG,PA,CENTRE COUNTY,09/01/1797,,16820
1797,40.5564586,-78.0977847,212,ALEXANDRIA,PA,HUNTINGDON COUNTY,09/01/1797,,16611
1797,40.9133943,-77.7783348,237,BELLEFONTE,PA,CENTRE COUNTY,09/01/1797,,16823
1797,42.4792618,-71.1522766,30,WOBURN,MA,MIDDLESEX COUNTY,09/04/1797,,1801
1797,43.0281329,-73.3812231,149,CAMBRIDGE,NY,WASHINGTON COUNTY,09/14/1797,,12816
1797,44.9864273,-73.4465251,32,CHAMPLAIN,NY,CLINTON COUNTY,09/14/1797,,12919
1797,43.5947889,-73.2656663,117,FAIR HAVEN,VT,RUTLAND COUNTY,09/14/1797,,5743
1797,43.4142375,-73.4876124,48,FORT ANN,NY,WASHINGTON COUNTY,09/14/1797,,12827
1797,44.6994873,-73.4529124,42,PLATTSBURGH,NY,CLINTON COUNTY,09/14/1797,,12901
1797,40.73259,-76.0279869,292,LEWISTOWN,PA,MIFFLIN COUNTY,09/16/1797,,17044
1797,39.2806451,-80.3445341,303,CLARKSBURG,WV,HARRISON COUNTY,09/28/1797,,26301
1797,34.7182174,-76.6638186,3,BEAUFORT,NC,CARTARET COUNTY,10/02/1797,,28516
1797,,,,KING AND QUEEN COURTHOUSE,VA,KING AND QUEEN COUNTY,10/02/1797,,23085
1797,38.7134516,-77.7952712,195,WARRENTON,VA,FAUQUIER COUNTY,10/02/1797,,20186
1797,42.9120072,-77.7455584,198,AVON,NY,LIVINGSTON COUNTY,10/30/1797,,14414
1797,36.5859718,-79.3950228,162,DANVILLE,VA,INDEPENDENT CITY,11/07/1797,,24541
1797,43.2670175,-73.5845598,42,FORT EDWARD,NY,WASHINGTON COUNTY,11/07/1797,,12828
1797,43.6884112,-70.7936719,166,LIMERICK,ME,YORK COUNTY,11/08/1797,,4048
1797,43.0009087,-73.8490111,96,BALLSTON SPA,NY,SARATOGA COUNTY,11/14/1797,,12020
1797,38.4809565,-76.778022,51,CHARLOTTE HALL,MD,SAINT MARYS COUNTY,11/14/1797,,20622
1797,41.0339862,-73.7629097,65,WHITE PLAINS,NY,WESTCHESTER COUNTY,11/14/1797,,10602
1797,40.0178522,-79.5894828,289,CONNELLSVILLE,PA,FAYETTE COUNTY,11/16/1797,,15425
1797,38.047638,-77.8169377,111,CENTREVILLE,VA,FAIRFAX COUNTY,11/27/1797,,20120
1797,41.8931576,-70.9111517,30,MIDDLEBORO,MA,PLYMOUTH COUNTY,12/05/1797,,2346
1797,41.1628731,-73.8615246,49,OSSINING,NY,WESTCHESTER COUNTY,12/12/1797,,10562
1797,40.0337085,-76.5044098,92,COLUMBIA,PA,LANCASTER COUNTY,12/20/1797,,17512
1798,36.7162613,-77.0680195,7,COURTLAND,VA,SOUTHHAMPTON COUNTY,00/00/1798,,23837
1798,43.0256259,-74.9859889,117,HERKIMER,NY,HERKIMER COUNTY,00/00/1798,,13350
1798,35.292908,-81.4912001,284,ELIZABETH CITY,NC,PASQUOTANK COUNTY,01/01/1798,,27909
1798,43.3006281,-73.5859487,90,HUDSON FALLS,NY,WASHINGTON COUNTY,01/01/1798,,12839
1798,42.9364768,-71.0533918,40,KINGSTON,NH,ROCKINGHAM COUNTY,01/01/1798,,3848
1798,37.2709704,-79.9414267,285,ROANOKE,VA,(INDEPENDENT CITY),01/11/1798,,24022
1798,38.6772691,-87.5286325,128,VINCENNES,IN,KNOX COUNTY,02/00/1798,,47591
1798,34.2745833,-81.6187179,150,NEWBERRY,SC,NEWBERRY COUNTY,03/06/1798,,29108
1798,38.00514,-78.4025094,106,MILTON,VA,ALBEMARLE COUNTY,03/13/1798,05/27/1835,
1798,41.350927,-74.2159814,158,OXFORD,NY,CHENANGO COUNTY,03/15/1798,,13830
1798,40.5556484,-75.9818772,123,HAMBURG,PA,BERKS COUNTY,03/29/1798,,19526
1798,36.6409697,-80.2656091,410,STUART,VA,PATRICK COUNTY,04/00/1798,,24171
1798,44.0886671,-73.302622,98,ADDISON,VT,ADDISON COUNTY,04/01/1798,11/29/02,
1798,,,,ALLEMANCE,NC,GUILFORD COUNTY,06/15/1798,03/31/1885,
1798,43.0822888,-76.40799,126,PERU,NY,CLINTON COUNTY,07/01/1798,,12972
1798,36.9609839,-78.2655525,155,LUNENBURG,VA,LUNENBURG COUNTY,07/03/1798,,23952
1798,42.9317335,-76.5660529,209,AUBURN,NY,CAYUGA COUNTY,08/11/1798,,13021
1798,39.5331563,-77.314706,121,WOODSBORO,MD,FREDERICK COUNTY,09/29/1798,,21798
1798,40.9114882,-73.7823549,26,NEW ROCHELLE,NY,WESTCHESTER COUNTY,11/30/1798,,10802
1799,39.1517713,-77.9822193,180,BERRYVILLE,VA,CLARKE COUNTY,01/30/1799,,22611
1799,39.2889903,-77.8597175,156,CHARLES TOWN,WV,JEFFERSON COUNTY,01/30/1799,,25414
1799,41.5501013,-71.4661691,25,NORTH KINGSTOWN,RI,WASHINGTON COUNTY,03/05/1799,,2852
1799,40.9417272,-77.7850022,212,MILESBURG,PA,CENTRE COUNTY,03/13/1799,,16853
1799,42.3459271,-71.5522874,119,MARLBOROUGH,MA,MIDDLESEX COUNTY,04/08/1799,,1752
1799,40.868154,-73.425676,23,HUNTINGTON,NY,SUFFOLK COUNTY,05/16/1799,,11743
1799,42.1806463,-72.9273224,438,BLANDFORD,MA,HAMPDEN COUNTY,07/01/1799,,1008
1799,44.100351,-70.2147764,66,LEWISTON,ME,ANDROSCOGGIN COUNTY,07/15/1799,,4240
1799,41.2056373,-76.7855152,152,MUNCY,PA,LYCOMING COUNTY,07/29/1799,,17756
1799,42.0334341,-70.9592096,22,EAST BRIDGEWATER,MA,PLYMOUTH COUNTY,09/21/1799,,2333
1799,44.3289482,-72.1689857,390,PEACHAM,VT,CALEDONIA COUNTY,09/26/1799,,5862
1799,31.5604442,-91.403171,66,NATCHEZ,MS,ADAMS COUNTY,11/29/1799,,39120
1799,39.3253786,-77.7388818,149,HARPERS FERRY,WV,JEFFERSON COUNTY,12/20/1799,,25425
1799,41.7481575,-71.1897684,11,SWANSEA,MA,BRISTOL COUNTY,12/31/1799,,2777
1800,42.0084073,-76.6238369,258,CHEMUNG,NY,CHEMUNG COUNTY,00/00/1800,,14825
1800,41.4531547,-72.4611984,11,EAST HADDAM,CT,MIDDLESEX COUNTY,00/00/1800,,6423
1800,39.7570227,-79.9697819,296,NEWTOWN,PA,BUCKS COUNTY,01/00/1800,,18940
1800,40.6337136,-74.4073737,34,PLAINFIELD,NJ,UNION COUNTY,01/00/1800,,7061
1800,36.548434,-82.5618186,369,KINGSPORT,TN,SULLIVAN COUNTY,01/01/1800,,37662
1800,34.8376684,-78.1161014,34,CONCORD,NC,CABARRUS COUNTY,01/07/1800,,28025
1800,40.3284403,-74.790718,64,PENNINGTON,NJ,MERCER COUNTY,01/15/1800,,8534
1800,43.7317442,-70.7108924,147,LIMINGTON,ME,YORK COUNTY,03/01/1800,,4049
1800,41.7898313,-69.9897397,18,ORLEANS,MA,BARNSTABLE COUNTY,03/13/1800,,2653
1800,42.0245442,-71.1286594,34,EASTON,MA,BRISTOL COUNTY,03/22/1800,,2334
1800,37.630134,-79.5430938,328,NATURAL BRIDGE,VA,ROCKBRIDGE COUNTY,06/01/1800,,24578
1800,37.3020965,-78.3919402,94,FARMVILLE,VA,PRINCE EDWARD COUNTY,07/01/1800,,23901
1800,33.7923477,-82.479018,143,LINCOLNTON,GA,LINCOLN COUNTY,09/01/1800,,30817
1800,34.8898161,-82.9765364,326,SALEM,SC,SUMTER COUNTY,09/03/1800,10/04/1866,
1800,44.7445159,-68.836982,33,HAMPDEN,ME,PENOBSCOT COUNTY,09/05/1800,,4444
1800,38.7717376,-84.0057628,157,AUGUSTA,KY,BRACKEN COUNTY,09/06/1800,,41002
1800,44.8011821,-68.7778138,36,BANGOR,ME,PENOBSCOT COUNTY,09/08/1800,,4401
1800,43.7981195,-73.0876119,130,BRANDON,VT,RUTLAND COUNTY,09/08/1800,,5733
1800,44.0547926,-70.7128399,137,BRIDGTON,ME,CUMBERLAND COUNTY,09/08/1800,,4009
1800,43.3820171,-72.608149,275,CAVENDISH,VT,WINDSOR COUNTY,09/08/1800,,5142
1800,43.6422934,-72.2517569,178,LEBANON,NH,GRAFTON COUNTY,09/08/1800,,3766
1800,42.813973,-72.023136,304,JAFFREY,NH,CHESHIRE COUNTY,09/09/1800,,3452
1800,42.0417695,-70.672259,5,DUXBURY,MA,PLYMOUTH COUNTY,09/11/1800,,2332
1800,42.091769,-70.7055941,5,MARSHFIELD,MA,PLYMOUTH COUNTY,09/11/1800,,2050
1800,42.1167621,-71.8647941,154,OXFORD,MA,WORCESTER COUNTY,09/11/1800,,1540
1800,42.058436,-70.1786375,10,PROVINCETOWN,MA,BARNSTABLE COUNTY,09/11/1800,,2657
1800,41.7317701,-70.8200371,10,ROCHESTER,MA,PLYMOUTH COUNTY,09/11/1800,,2770
1800,42.1959348,-70.725874,11,SCITUATE,MA,PLYMOUTH COUNTY,09/11/1800,,2066
1800,40.1462213,-74.7118264,17,BORDENTOWN,NJ,BURLINGTON COUNTY,09/18/1800,,8505
1800,37.4370803,-76.3199427,2,MATHEWS,VA,MATHEWS COUNTY,09/18/1800,,23109
1800,40.5742696,-74.60988,18,SOMERVILLE,NJ,SOMERSET COUNTY,09/18/1800,,8876
1800,38.1334663,-77.5216512,78,THORNBURG,VA,SPOTSYLVANIA COUNTY,09/19/1800,,22565
1800,39.8964641,-80.1792299,294,WAYNESBURG,PA,GREENE COUNTY,09/20/1800,,15370
1800,39.7045417,-77.3269307,133,EMMITSBURG,MD,FREDERICK COUNTY,09/25/1800,,21727
1800,42.9139589,-75.3790591,380,SANGERFIELD,NY,ONEIDA COUNTY,09/25/1800,,13455
1800,42.6781266,-75.4985123,319,SHERBURNE,NY,CHENANGO COUNTY,09/25/1800,,13460
1800,39.5753791,-76.9958149,233,WESTMINSTER,MD,CARROLL COUNTY,09/25/1800,,21157
1800,,,,WATERFORD,ME,OXFORD COUNTY,09/29/1800,,4088
1800,42.3370164,-77.3177577,338,BATH,NY,STEUBEN COUNTY,09/30/1800,,14810
1800,42.3995257,-74.1723608,235,DURHAM,NY,GREENE COUNTY,09/30/1800,7/11/87,12422
1800,42.0897965,-76.8077338,260,ELMIRA,NY,CHEMUNG COUNTY,09/30/1800,,14901
1800,42.3406373,-75.1651689,376,FRANKLIN,NY,DELAWARE COUNTY,09/30/1800,,13775
1800,42.1034075,-76.2621549,248,OWEGO,NY,TIOGA COUNTY,10/01/1800,,13827
1800,40.96342,-76.6127329,148,DANVILLE,PA,MONTOUR COUNTY,10/04/1800,,17821
1800,35.7564719,-83.9704593,285,MARYVILLE,TN,BLOUNT COUNTY,10/06/1800,,37801
1800,40.1017643,-76.085227,150,NEW HOLLAND,PA,LANCASTER COUNTY,10/06/1800,,17557
1800,39.091449,-84.4957757,156,NEWPORT,KY,CAMPBELL COUNTY,10/06/1800,,41071
1800,35.6009452,-82.554015,649,ASHEVILLE,NC,BUNCOMBE COUNTY,10/08/1800,,28810
1800,38.6881293,-83.6093611,154,MANCHESTER,OH,ADAMS COUNTY,10/08/1800,,45144
1800,37.4511591,-86.9091596,127,HARTFORD,KY,OHIO COUNTY,10/10/1800,,42347
1800,39.555112,-75.6502069,6,SAINT GEORGES,DE,NEW CASTLE COUNTY,10/10/1800,,19733
1800,38.3498195,-81.6326235,182,CHARLESTON,WV,KANAWHA COUNTY,10/15/1800,,25301
1800,36.7573604,-78.7897293,115,SCOTTSBURG,VA,HALIFAX COUNTY,10/20/1800,01/01/1823,
1800,40.2720146,-80.6095187,206,WELLSBURG,WV,BROOKE COUNTY,10/20/1800,,26070
1800,37.693952,-85.8591285,221,ELIZABETHTOWN,KY,HARDIN COUNTY,10/22/1800,,42701
1800,38.454845,-77.2169239,25,NANJEMOY,MD,CHARLES COUNTY,10/24/1800,2/15/33,
1800,36.7993087,-78.458331,163,CHASE CITY,VA,MECKLENBURG COUNTY,10/28/1800,,23924
1800,37.8361538,-87.5900134,124,HENDERSON,KY,HENDERSON COUNTY,10/30/1800,,42420
1800,36.3589409,-86.0524873,144,DIXON SPRINGS,TN,SMITH COUNTY,10/31/1800,,37057
1800,42.356475,-73.2848289,383,LENOX,MA,BERKSHIRE COUNTY,10/31/1800,,1240
1800,43.8964511,-73.0998363,129,SALISBURY,VT,ADDISON COUNTY,10/31/1800,2/28/07,
1800,37.8792991,-79.2894784,494,FAIRFIELD,VA,ROCKBRIDGE COUNTY,11/06/1800,,24435
1800,42.4348014,-74.723487,481,WEST HARPERSFIELD,NY,DELAWARE COUNTY,11/11/1800,01/30/1846,
1800,38.8120591,-77.6363806,112,HAYMARKET,VA,PRINCE WILLIAM COUNTY,11/12/1800,,20169
1800,31.3702255,-81.4339903,9,DARIEN,GA,MC INTOSH COUNTY,11/17/1800,,31305
1800,39.1867705,-77.6099904,131,WATERFORD,VA,LOUDOUN COUNTY,11/20/1800,,20197
1800,43.0020107,-75.9768632,180,MANLIUS,NY,ONONDAGA COUNTY,11/26/1800,,13104
1800,42.1292241,-80.085059,199,ERIE,PA,ERIE COUNTY,12/05/1800,,16515
1800,44.2597917,-70.5006152,247,PARIS,ME,OXFORD COUNTY,12/05/1800,,4271
1801,41.5386878,-75.946588,187,TUNKHANNOCK,PA,WYOMING COUNTY,01/03/1801,,18657
1801,37.0944971,-88.080301,155,EDDYVILLE,KY,LYON COUNTY,01/16/1801,,42038
1801,35.4771094,-76.8116045,4,BATH,NC,BEAUFORT COUNTY,04/01/1801,,27808
1801,38.3903526,-84.2941013,224,CYNTHIANA,KY,HARRISON COUNTY,04/01/1801,,41031
1801,41.6578767,-72.3659161,168,HEBRON,CT,TOLLAND COUNTY,04/01/1801,,6248
1801,44.2139587,-70.5447825,118,NORWAY,ME,OXFORD COUNTY,04/01/1801,,4268
1801,36.8453199,-86.887219,181,RUSSELLVILLE,KY,LOGAN COUNTY,04/01/1801,,42276
1801,38.2120144,-85.2235666,232,SHELBYVILLE,KY,SHELBY COUNTY,04/01/1801,,40065
1801,35.9250637,-86.86889,196,FRANKLIN,TN,WILLIAMSON COUNTY,04/04/1801,,37064
1801,41.8245424,-72.8937122,108,CANTON,CT,HARTFORD COUNTY,04/18/1801,,6019
1801,34.2998762,-79.8761741,46,DARLINGTON,SC,DARLINGTON COUNTY,04/18/1801,,29532
1801,41.8759311,-72.8012082,63,SIMSBURY,CT,HARTFORD COUNTY,04/18/1801,,6070
1801,44.3378343,-72.756229,130,WATERBURY,VT,WASHINGTON COUNTY,05/07/1801,,5676
1801,35.8923253,-82.8290318,406,HOT SPRINGS,NC,MADISON COUNTY,05/16/1801,,28743
1801,40.0806266,-80.9000916,388,SAINT CLAIRSVILLE,OH,BELMONT COUNTY,05/21/1801,,43950
1801,40.9464875,-73.0692732,1,PORT JEFFERSON,NY,SUFFOLK COUNTY,05/25/1801,6/24/71,11777
1801,43.9408988,-72.607603,415,RANDOLPH CENTER,VT,ORANGE COUNTY,06/11/1801,,5061
1801,38.4222995,-83.7338076,248,FLEMINGSBURG,KY,FLEMING COUNTY,07/01/1801,,41041
1801,37.591512,-80.5436807,632,UNION,WV,MONROE COUNTY,08/19/1801,,24983
1801,40.1975848,-77.7213803,298,DOYLESTOWN,PA,BUCKS COUNTY,09/15/1801,,18901
1801,38.7851173,-76.2243919,2,SAINT MICHAELS,MD,TALBOT COUNTY,09/16/1801,,21663
1801,41.0250584,-80.7609121,350,CANFIELD,OH,MAHONING COUNTY,09/26/1801,,44406
1801,42.9875825,-71.8125769,253,FRANCESTOWN,NH,HILLSBOROUGH COUNTY,09/26/1801,,3043
1801,41.0997803,-80.6495194,261,YOUNGSTOWN,OH,MAHONING COUNTY,09/26/1801,,44501
1801,41.2375569,-80.8184166,270,WARREN,OH,TRUMBULL COUNTY,10/24/1801,,44481
1801,41.3831566,-71.641729,5,CHARLESTOWN,RI,WASHINGTON COUNTY,12/26/1801,,2813
1802,43.3461841,-72.9953817,211,DANBY,VT,RUTLAND COUNTY,01/01/1802,,5739
1802,39.9670569,-74.9426677,23,MOORESTOWN,NJ,BURLINGTON COUNTY,01/08/1802,,8057
1802,37.7478572,-84.2946539,289,RICHMOND,KY,MADISON COUNTY,01/19/1802,,40475
1802,41.8498151,-73.9301365,9,STAATSBURG,NY,DUTCHESS COUNTY,01/23/1802,,12580
1802,,,,ATHOL CENTRE,MA,WORCESTER COUNTY,02/05/1802,1/31/01,
1802,39.1806623,-77.0591452,133,BROOKEVILLE,MD,MONTGOMERY COUNTY,03/10/1802,,20833
1802,39.6270376,-78.2272299,185,BERKELEY SPRINGS,WV,MORGAN COUNTY,03/28/1802,,25411
1802,39.9259463,-75.1196199,6,CAMDEN,NJ,CAMDEN COUNTY,03/31/1802,,8101
1802,38.5708849,-90.1901113,124,CAHOKIA,IL,SAINT CLAIR COUNTY,04/01/1802,07/29/1892,
1802,41.5242649,-72.0759105,17,NORWICH,CT,NEW LONDON COUNTY,04/01/1802,,6360
1802,38.8462236,-77.3063733,131,FAIRFAX,VA,FAIRFAX COUNTY,04/07/1802,,22030
1802,40.3981415,-77.0230334,107,DUNCANNON,PA,PERRY COUNTY,04/08/1802,,17020
1802,39.4437123,-77.5447102,172,MIDDLETOWN,MD,FREDERICK COUNTY,04/08/1802,,21769
1802,,,,WESTWARD MILLS,VA,BRUNSWICK COUNTY,04/08/1802,12/02/1817,
1802,42.2445377,-71.8120157,153,CAMBRIDGE,MA,MIDDLESEX COUNTY,05/20/1802,06/25/1873,
1802,44.981988,-72.9162427,137,FRANKLIN,VT,FRANKLIN COUNTY,07/01/1802,,5457
1802,43.0831301,-73.7845651,91,SARATOGA SPRINGS,NY,SARATOGA COUNTY,07/01/1802,,12866
1802,42.555644,-72.067579,347,TEMPLETON,MA,WORCESTER COUNTY,07/01/1802,,1468
1802,42.3511845,-76.0032571,297,LISLE,NY,BROOME COUNTY,07/31/1802,,13797
1802,39.5589474,-84.3041074,207,FRANKLIN,OH,WARREN COUNTY,08/05/1802,,45005
1802,41.6648216,-72.6392587,34,ROCKY HILL,CT,HARTFORD COUNTY,08/06/1802,,6067
1802,40.4275693,-79.9939418,261,ALLENTOWN,PA,LEHIGH COUNTY,09/07/1802,,18101
1802,33.960948,-83.3779358,228,ATHENS,GA,CLARKE COUNTY,09/07/1802,,30601
1802,39.0826135,-74.8237786,4,CAPE MAY COURT HOUSE,NJ,CAPE MAY COUNTY,09/07/1802,,8210
1802,39.8917732,-75.9216133,177,COCHRANVILLE,PA,CHESTER COUNTY,09/07/1802,,19330
1802,42.2417675,-70.8036544,6,COHASSET,MA,NORFOLK COUNTY,09/07/1802,,2025
1802,43.2445168,-73.8323447,186,CORINTH,NY,SARATOGA COUNTY,09/07/1802,,12822
1802,42.331427,-83.0457538,183,DETROIT,MI,WAYNE COUNTY,09/07/1802,,48233
1802,42.5006271,-76.8724586,260,HECTOR,NY,SCHUYLER COUNTY,09/07/1802,,14841
1802,42.6170155,-76.7249502,276,INTERLAKEN,NY,SENECA COUNTY,09/07/1802,,14847
1802,40.7298207,-73.2103934,4,ISLIP,NY,SUFFOLK COUNTY,09/07/1802,,11751
1802,36.6889777,-83.1110047,458,JONESVILLE,VA,LEE COUNTY,09/07/1802,,24263
1802,44.4889465,-71.569251,263,LANCASTER,NH,COOS COUNTY,09/07/1802,,3584
1802,38.7745565,-75.1393498,4,LEWES,DE,SUSSEX COUNTY,09/07/1802,,19958
1802,39.8278698,-77.9033315,173,MERCERSBURG,PA,FRANKLIN COUNTY,09/07/1802,,17236
1802,39.9531338,-79.1041947,592,MILFORD,PA,PIKE COUNTY,09/07/1802,,18337
1802,41.3131498,-74.7798877,149,MILLVILLE,NJ,CUMBERLAND COUNTY,09/07/1802,,8332
1802,36.8297937,-84.8491126,281,MONTICELLO,KY,WAYNE COUNTY,09/07/1802,,42633
1802,39.7392804,-75.2240718,21,MULLICA HILL,NJ,GLOUCESTER COUNTY,09/07/1802,,8062
1802,40.740375,-75.3096237,150,NAZARETH,PA,NORTHAMPTON COUNTY,09/07/1802,,18064
1802,40.7886714,-78.4330757,429,NEW LONDON,PA,CHESTER COUNTY,09/07/1802,,19360
1802,39.4695489,-76.8294213,221,REISTERSTOWN,MD,BALTIMORE COUNTY,09/07/1802,,21136
1802,40.4289939,-74.8676651,67,RINGOES,NJ,HUNTERDON COUNTY,09/07/1802,,8551
1802,42.752292,-76.8335672,219,ROMULUS,NY,SENECA COUNTY,09/07/1802,,14541
1802,37.0920222,-84.6041084,296,SOMERSET,KY,PULASKI COUNTY,09/07/1802,,42501
1802,40.3697905,-80.6339638,320,STEUBENVILLE,OH,JEFFERSON COUNTY,09/07/1802,,43952
1802,36.9007039,-77.810273,106,STURGEONVILLE,VA,BRUNSWICK COUNTY,09/07/1802,3/15/55,
1802,42.6375935,-70.9494966,18,TOPSFIELD,MA,ESSEX COUNTY,09/07/1802,,1983
1802,43.4967351,-73.7762313,227,WARRENSBURG,NY,WARREN COUNTY,09/07/1802,,12885
1802,39.0542312,-84.0529886,248,WILLIAMSBURG,OH,CLERMONT COUNTY,09/07/1802,,45176
1802,38.6067887,-78.175278,193,WOODVILLE,VA,RAPPAHANNOCK COUNTY,09/25/1802,2/11/66,
1802,42.8950641,-77.4347128,326,EAST BLOOMFIELD,NY,ONTARIO COUNTY,10/01/1802,2/10/96,14443
1802,41.0264862,-73.6284598,28,GREENWICH,CT,FAIRFIELD COUNTY,10/01/1802,,6830
1802,43.5406265,-72.3989804,182,HARTLAND,VT,WINDSOR COUNTY,10/01/1802,,5048
1802,40.807321,-72.8212131,7,MORICHES,NY,SUFFOLK COUNTY,10/05/1802,,11955
1802,42.3472958,-76.8452351,137,MONTOUR FALLS,NY,SCHUYLER COUNTY,10/13/1802,,14865
1802,43.0434039,-74.8595958,128,LITTLE FALLS,NY,HERKIMER COUNTY,12/01/1802,,13365
1802,42.0189894,-71.0078215,19,WEST BRIDGEWATER,MA,PLYMOUTH COUNTY,12/17/1802,,2379
1802,36.1034126,-84.1318632,250,CLINTON,TN,ANDERSON COUNTY,12/29/1802,,37716
1803,,,,DE RUYTER,NY,MADISON COUNTY,00/00/1803,,13052
1803,39.4078747,-79.4067116,731,OAKLAND,MD,GARRETT COUNTY,00/00/1803,,21550
1803,42.9981156,-78.1875167,272,BATAVIA,NY,GENESEE COUNTY,01/01/1803,,14020
1803,43.0484029,-75.3785034,184,CLINTON,NY,ONEIDA COUNTY,01/01/1803,,13323
1803,38.665397,-78.4594522,243,LURAY,VA,PAGE COUNTY,01/01/1803,,22835
1803,42.1625997,-71.0411588,67,RANDOLPH,MA,NORFOLK COUNTY,01/01/1803,,2368
1803,44.4192248,-72.0150949,182,SAINT JOHNSBURY,VT,CALEDONIA COUNTY,01/01/1803,,5819
1803,42.577873,-70.7689354,5,MANCHESTER,MA,ESSEX COUNTY,01/06/1803,,1944
1803,42.1417641,-71.3967256,59,MEDWAY,MA,NORFOLK COUNTY,01/29/1803,,2053
1803,42.1584324,-71.1447732,35,CANTON,MA,NORFOLK COUNTY,03/07/1803,,2021
1803,40.1417761,-75.209065,71,FORT WASHINGTON,PA,MONTGOMERY COUNTY,04/01/1803,,19034
1803,41.9834324,-71.3328328,57,NORTH ATTLEBORO,MA,BRISTOL COUNTY,04/01/1803,,2760
1803,37.1148374,-81.5195548,763,TAZEWELL,VA,TAZEWELL COUNTY,04/01/1803,,24651
1803,36.8201391,-79.5866965,308,CALLANDS,VA,PITTSYLVANIA COUNTY,04/08/1803,,24530
1803,42.7653662,-71.467566,49,NASHUA,NH,HILLSBOROUGH COUNTY,05/07/1803,,3060
1803,37.5851412,-79.0514134,232,AMHERST,VA,AMHERST COUNTY,07/01/1803,,24521
1803,37.9103403,-85.316622,206,BLOOMFIELD,KY,NELSON COUNTY,07/01/1803,,40008
1803,42.3442482,-75.1704468,366,BROOKLYN,NY,KINGS COUNTY,07/01/1803,,11201
1803,36.599527,-83.6685252,396,CUMBERLAND GAP,TN,CLAIBORNE COUNTY,07/01/1803,,37724
1803,36.995884,-85.9119215,230,GLASGOW,KY,BARREN COUNTY,07/01/1803,,42141
1803,33.4101161,-91.0617735,40,GREENVILLE,MS,JEFFERSON COUNTY,07/01/1803,01/22/1834,
1803,42.6362052,-70.8431049,15,HAMILTON,MA,ESSEX COUNTY,07/01/1803,,1936
1803,44.3292199,-73.110679,104,HINESBURG,VT,CHITTENDEN COUNTY,07/01/1803,,5461
1803,41.3306493,-74.1868136,196,MONROE,NY,ORANGE COUNTY,07/01/1803,,10950
1803,44.8817124,-72.9429124,104,SHELDON,VT,FRANKLIN COUNTY,07/01/1803,,5483
1803,37.6853413,-85.2221819,234,SPRINGFIELD,KY,WASHINGTON COUNTY,07/01/1803,,40069
1803,43.2722916,-75.1898871,244,BARNEVELD,NY,ONEIDA COUNTY,07/11/1803,,13304
1803,41.5048159,-73.9695832,42,BEACON,NY,DUTCHESS COUNTY,07/11/1803,,12508
1803,43.786736,-75.4918505,269,LOWVILLE,NY,LEWIS COUNTY,07/11/1803,,13367
1803,40.0959438,-75.1251743,98,JENKINTOWN,PA,MONTGOMERY COUNTY,07/28/1803,,19046
1803,43.6272915,-75.4112896,385,TURIN,NY,LEWIS COUNTY,08/13/1803,,13473
1803,34.2684746,-81.532049,155,UNION,SC,UNION COUNTY,10/01/1803,,29379
1803,38.5990056,-75.9260475,12,EAST NEW MARKET,MD,DORCHESTER COUNTY,10/05/1803,,21631
1803,42.2603648,-73.8095707,8,ATHENS,NY,GREENE COUNTY,10/11/1803,,12015
1803,38.713452,-78.159444,208,WASHINGTON,VA,RAPPAHANNOCK COUNTY,10/12/1803,,22747
1803,39.7589478,-84.1916069,225,DAYTON,OH,MONTGOMERY COUNTY,12/12/1803,,45401
1803,44.6356063,-72.6803979,153,JOHNSON,VT,LAMOILLE COUNTY,12/17/1803,,5656
1803,42.9386856,-74.1881858,110,AMSTERDAM,NY,MONTGOMERY COUNTY,12/19/1803,,12010
1804,44.6447722,-72.8762415,141,CAMBRIDGE,VT,LAMOILLE COUNTY,01/01/1804,,5444
1804,41.3317607,-74.35682,136,FLORIDA,NY,ORANGE COUNTY,01/01/1804,,10921
1804,42.3417565,-72.5884222,39,HADLEY,MA,HAMPSHIRE COUNTY,01/01/1804,,1035
1804,43.4261809,-73.7123408,105,LAKE GEORGE,NY,WARREN COUNTY,01/01/1804,,12845
1804,39.9831559,-76.1841226,143,STRASBURG,PA,LANCASTER COUNTY,01/01/1804,,17579
1804,43.7375693,-75.4696268,385,MARTINSBURG,NY,LEWIS COUNTY,01/19/1804,,13404
1804,34.9495672,-81.9320482,246,SPARTANBURG,SC,SPARTANBURG COUNTY,01/31/1804,,29301
1804,,,,MOULTONBORO,NH,CARROLL COUNTY,02/14/1804,,3254
1804,41.5545477,-71.131155,11,ADAMSVILLE,RI,NEWPORT COUNTY,02/21/1804,,2801
1804,36.8664765,-83.8888138,299,BARBOURVILLE,KY,KNOX COUNTY,04/01/1804,,40906
1804,42.1570187,-77.0530235,301,DENMARK,NY,LEWIS COUNTY,04/01/1804,,13631
1804,43.9747838,-75.9107565,142,WATERTOWN,NY,JEFFERSON COUNTY,04/01/1804,,13601
1804,42.5459227,-71.9106308,325,WESTMINSTER,MA,WORCESTER COUNTY,05/10/1804,,1473
1804,41.6862224,-70.0758508,17,HARWICH,MA,BARNSTABLE COUNTY,05/11/1804,,2645
1804,41.7601093,-70.082796,9,BREWSTER,MA,BARNSTABLE COUNTY,07/01/1804,,2631
1804,38.2775702,-85.7371847,136,JEFFERSONVILLE,IN,CLARK COUNTY,07/01/1804,,47130
1804,41.9939828,-73.2020577,351,NORFOLK,CT,LITCHFIELD COUNTY,07/01/1804,,6058
1804,38.4431826,-77.8997175,110,STEVENSBURG,VA,CULPEPER COUNTY,07/01/1804,,22741
1804,41.1595005,-81.4403898,332,STOW,OH,SUMMIT COUNTY,07/01/1804,02/10/1863,
1804,39.3995008,-84.5613355,181,HAMILTON,OH,BUTLER COUNTY,08/02/1804,,45012
1804,43.6439672,-70.9236748,157,WEST NEWFIELD,ME,YORK COUNTY,08/09/1804,,4095
1804,37.7104135,-76.379669,27,KILMARNOCK,VA,LANCASTER COUNTY,08/10/1804,,22482
1804,38.9939872,-80.2320276,436,BUCKHANNON,WV,UPSHUR COUNTY,09/03/1804,,26201
1804,40.8481509,-75.2915694,230,WIND GAP,PA,NORTHAMPTON COUNTY,09/13/1804,,18091
1804,42.6597973,-75.0487708,405,HARTWICK,NY,OTSEGO COUNTY,09/20/1804,,13348
1804,42.8864468,-78.8783689,183,BUFFALO,NY,ERIE COUNTY,09/30/1804,,14240
1804,44.2300698,-69.7753222,7,GARDINER,ME,KENNEBEC COUNTY,09/30/1804,,4345
1804,44.5764415,-72.2956601,425,GREENSBORO,VT,ORLEANS COUNTY,10/01/1804,,5841
1804,36.0031904,-80.7661784,278,HOUSTONVILLE,NC,IREDELL COUNTY,10/01/1804,02/09/1869,
1804,38.30202,-84.1474297,254,MILLERSBURG,KY,BOURBON COUNTY,10/01/1804,,40348
1804,29.9546482,-90.075072,0,NEW ORLEANS,LA,ORLEANS PARISH,10/01/1804,,70113
1804,42.947011,-76.4291017,266,SKANEATELES,NY,ONONDAGA COUNTY,10/01/1804,,13152
1804,38.6272733,-90.1978889,142,SAINT LOUIS,MO,INDEPENDENT CITY,10/03/1804,,63155
1804,39.9206363,-78.9578022,710,BERLIN,PA,SOMERSET COUNTY,10/27/1804,,15530
1804,39.9242266,-83.8088172,298,SPRINGFIELD,OH,CLARK COUNTY,11/09/1804,,45501
1804,41.0245024,-81.0500944,326,DEERFIELD,OH,PORTAGE COUNTY,11/14/1804,,44411
1804,41.7719991,-80.8545331,247,AUSTINBURG,OH,ASHTABULA COUNTY,11/16/1804,,44010
1804,40.8083898,-82.4354442,314,WINDSOR,OH,ASHTABULA COUNTY,11/30/1804,,44099
1804,44.0781246,-71.2828507,203,BARTLETT,NH,CARROLL COUNTY,12/13/1804,,3812
1805,38.5175757,-83.8418665,269,MAYS LICK,KY,MASON COUNTY,00/00/1805,,41055
1805,42.6839611,-75.3726723,395,COLUMBUS,NY,CHENANGO COUNTY,01/01/1805,2/28/01,
1805,38.9151113,-77.9202734,139,DELAPLANE,VA,FAUQUIER COUNTY,01/01/1805,,20144
1805,40.3584006,-81.4342809,258,GNADENHUTTEN,OH,TUSCARAWAS COUNTY,01/01/1805,,44629
1805,40.4272949,-78.3889024,289,HOLLIDAYSBURG,PA,BLAIR COUNTY,01/01/1805,,16648
1805,42.531184,-75.5235149,309,NORWICH,NY,CHENANGO COUNTY,01/01/1805,,13815
1805,39.2667418,-81.5615135,187,PARKERSBURG,WV,WOOD COUNTY,01/01/1805,,26101
1805,37.9814415,-90.041779,118,SAINTE GENEVIEVE,MO,SAINTE GENEVIEVE COUNTY,01/01/1805,,63670
1805,43.4892431,-71.5822978,244,SANBORNTON,NH,BELKNAP COUNTY,01/01/1805,,3269
1805,43.1467489,-71.4575689,128,PEMBROKE,NH,MERRIMACK COUNTY,02/06/1805,4/30/35,
1805,39.3326145,-75.1996314,8,CEDARVILLE,NJ,CUMBERLAND COUNTY,02/13/1805,,8311
1805,38.8445251,-82.1370889,173,POINT PLEASANT,WV,MASON COUNTY,02/28/1805,,25550
1805,40.3642728,-74.9512785,21,NEW HOPE,PA,BUCKS COUNTY,03/18/1805,,18938
1805,41.4994954,-81.6954088,199,CLEVELAND,OH,CUYAHOGA COUNTY,04/01/1805,,44101
1805,40.2720151,-81.8595757,235,COSHOCTON,OH,COSHOCTON COUNTY,04/01/1805,,43812
1805,42.4406284,-76.4966071,125,ITHACA,NY,TOMPKINS COUNTY,04/01/1805,,14850
1805,38.4334003,-85.1696768,254,NEW CASTLE,KY,HENRY COUNTY,04/01/1805,,40050
1805,41.1575566,-81.2420473,346,RAVENNA,OH,PORTAGE COUNTY,04/01/1805,,44266
1805,41.5964869,-72.8776013,55,SOUTHINGTON,CT,HARTFORD COUNTY,04/01/1805,,6489
1805,40.0394982,-84.2032767,252,TROY,OH,MIAMI COUNTY,04/01/1805,,45373
1805,40.5564892,-75.2893441,106,SPRINGTOWN,PA,BUCKS COUNTY,04/09/1805,,18081
1805,,,,WEST FOXBOROUGH,MA,NORFOLK COUNTY,06/11/1805,11/14/1895,
1805,40.4536813,-79.0319742,467,ARMAGH,PA,INDIANA COUNTY,07/01/1805,,15920
1805,33.2448733,-81.3587178,66,BARNWELL,SC,BARNWELL COUNTY,07/01/1805,,29812
1805,,,,FRANKLINTON,OH,FRANKLIN COUNTY,07/01/1805,10/20/1834,
1805,39.7853861,-75.9788349,171,OXFORD,PA,CHESTER COUNTY,07/01/1805,,19363
1805,41.7244885,-81.245657,206,PAINESVILLE,OH,LAKE COUNTY,07/01/1805,,44077
1805,37.2768113,-79.1008543,269,RUSTBURG,VA,CAMPBELL COUNTY,07/01/1805,,24588
1805,42.1200896,-74.3954274,322,SHANDAKEN,NY,ULSTER COUNTY,07/01/1805,07/05/1850,
1805,41.3706107,-81.0650959,334,PARKMAN,OH,GEAUGA COUNTY,08/01/1805,,44080
1805,39.2739639,-81.5729029,187,BELPRE,OH,WASHINGTON COUNTY,08/02/1805,,45714
1805,42.6820293,-72.3389743,291,WARWICK,MA,FRANKLIN COUNTY,09/13/1805,12/30/63,
1805,40.8611755,-79.8953328,318,BUTLER,PA,BUTLER COUNTY,10/01/1805,,16001
1805,,,,UPPER BLUE LICK,KY,FLEMING COUNTY,10/01/1805,06/13/1835,
1805,39.9300749,-80.0589461,296,JEFFERSON,PA,GREENE COUNTY,10/28/1805,,15344
1805,42.9375899,-70.8389421,12,HAMPTON,NH,ROCKINGHAM COUNTY,11/27/1805,,3842
1806,41.2795414,-72.8150989,14,BRANFORD,CT,NEW HAVEN COUNTY,00/00/1806,,6405
1806,44.6942291,-75.4863364,90,OGDENSBURG,NY,SAINT LAWRENCE COUNTY,00/00/1806,,13669
1806,38.8406634,-79.8753457,598,BEVERLY,WV,RANDOLPH COUNTY,01/01/1806,,26253
1806,39.3817814,-75.2199099,8,FAIRTON,NJ,CUMBERLAND COUNTY,01/01/1806,,8320
1806,36.1018163,-78.4580543,125,FRANKLINTON,NC,FRANKLIN COUNTY,01/01/1806,,27525
1806,38.8603437,-84.3977162,212,GRANTS LICK,KY,CAMPBELL COUNTY,01/01/1806,09/15/1815,
1806,44.6397701,-73.1104112,91,MILTON,VT,CHITTENDEN COUNTY,01/01/1806,,5468
1806,40.1573169,-76.3069014,117,LITITZ,PA,LANCASTER COUNTY,02/01/1806,,17543
1806,40.5395421,-75.4968502,136,EMMAUS,PA,LEHIGH COUNTY,03/05/1806,,18049
1806,42.8384221,-71.1470037,91,ATKINSON,NH,ROCKINGHAM COUNTY,03/06/1806,3/15/11,
1806,,,,CORINTH,VT,ORANGE COUNTY,03/20/1806,,5039
1806,39.1381658,-76.2349537,5,ROCK HALL,MD,KENT COUNTY,03/28/1806,,21661
1806,43.2547975,-73.0987163,292,DORSET,VT,BENNINGTON COUNTY,03/31/1806,,5251
1806,,,,DERBY,VT,ORLEANS COUNTY,04/01/1806,,5829
1806,39.4523385,-74.7276626,5,MAYS LANDING,NJ,ATLANTIC COUNTY,04/01/1806,,8330
1806,37.3058839,-89.5181476,108,CAPE GIRARDEAU,MO,CAPE GIRARDEAU COUNTY,06/09/1806,,63701
1806,31.3112936,-92.4451371,23,ALEXANDRIA,LA,RAPIDES PARISH,07/01/1806,,71301
1806,39.2275658,-83.2704663,220,BAINBRIDGE,OH,ROSS COUNTY,07/01/1806,,45612
1806,42.3042403,-76.1865965,319,BERKSHIRE,NY,TIOGA COUNTY,07/01/1806,,13736
1806,31.7607195,-93.0862749,36,NATCHITOCHES,LA,NATCHITOCHES PARISH,07/01/1806,,71457
1806,37.7742152,-87.1133304,120,OWENSBORO,KY,DAVIESS COUNTY,07/01/1806,,42301
1806,42.0775906,-73.9529126,47,SAUGERTIES,NY,ULSTER COUNTY,07/01/1806,,12477
1806,43.6606261,-72.3384249,120,HARTFORD,VT,WINDSOR COUNTY,07/21/1806,,5047
1806,41.7386662,-80.7698066,293,JEFFERSON,OH,ASHTABULA COUNTY,08/02/1806,,44047
1806,41.3503303,-83.1218634,191,FREMONT,OH,SANDUSKY COUNTY,08/20/1806,,43420
1806,44.3572723,-73.3920742,68,WILLSBORO,NY,ESSEX COUNTY,08/23/1806,,12996
1806,41.9150986,-71.6714555,131,CHEPACHET,RI,PROVIDENCE COUNTY,09/06/1806,,2814
1806,42.23978,-79.8328272,180,FREEPORT,PA,ARMSTRONG COUNTY,09/13/1806,,16229
1806,40.9792619,-75.1429563,155,DELAWARE WATER GAP,PA,MONROE COUNTY,09/18/1806,,18327
1806,44.6803471,-69.1628222,159,DIXMONT,ME,PENOBSCOT COUNTY,09/18/1806,,4932
1806,42.3945133,-77.6966596,361,ARKPORT,NY,STEUBEN COUNTY,09/22/1806,,14807
1806,41.8650534,-80.7898089,204,ASHTABULA,OH,ASHTABULA COUNTY,09/30/1806,,44004
1806,,,,AMELIA COURTHOUSE,VA,AMELIA COUNTY,10/01/1806,,23002
1806,42.9767255,-78.5919709,225,CLARENCE,NY,ERIE COUNTY,10/01/1806,,14031
1806,42.7678376,-78.6133589,280,EAST AURORA,NY,ERIE COUNTY,10/01/1806,,14052
1806,43.4553461,-76.5104973,87,OSWEGO,NY,OSWEGO COUNTY,10/07/1806,,13126
1806,38.9939977,-77.8847178,171,UPPERVILLE,VA,FAUQUIER COUNTY,10/13/1806,,20184
1806,39.090891,-84.8499504,146,LAWRENCEBURG,IN,DEARBORN COUNTY,10/17/1806,,47025
1806,44.6903349,-74.7032439,242,HOPKINTON,NY,SAINT LAWRENCE COUNTY,11/05/1806,4/8/66,
1806,42.795896,-77.816947,235,GENESEO,NY,LIVINGSTON COUNTY,11/12/1806,,14454
1806,42.3709226,-72.5981446,37,HATFIELD,MA,HAMPSHIRE COUNTY,11/22/1806,,1038
1807,43.0906318,-73.4987251,114,GREENWICH,NY,WASHINGTON COUNTY,00/00/1807,,12834
1807,43.8092321,-76.0240892,187,ADAMS,NY,JEFFERSON COUNTY,01/01/1807,,13605
1807,38.6808958,-85.1793979,147,CARROLLTON,KY,CARROLL COUNTY,01/01/1807,,41008
1807,42.3292408,-75.7699147,280,GREENE,NY,CHENANGO COUNTY,01/01/1807,,13778
1807,40.7281575,-74.0776417,9,JERSEY CITY,NJ,HUDSON COUNTY,01/01/1807,,7303
1807,43.8992395,-71.1484029,175,MADISON,NH,CARROLL COUNTY,01/01/1807,,3849
1807,43.2797862,-77.1860929,83,PULTNEYVILLE,NY,WAYNE COUNTY,01/01/1807,,14538
1807,43.9461707,-76.1190929,86,SACKETS HARBOR,NY,JEFFERSON COUNTY,01/01/1807,,13685
1807,41.9848183,-72.2889686,177,STAFFORD,CT,TOLLAND COUNTY,01/01/1807,,6075
1807,36.3908826,-86.1672107,144,HARTSVILLE,TN,TROUSDALE COUNTY,01/20/1807,,37074
1807,41.878711,-71.3825558,11,PAWTUCKET,RI,PROVIDENCE COUNTY,01/22/1807,,2860
1807,43.0881441,-70.736164,6,KITTERY,ME,YORK COUNTY,01/26/1807,,3904
1807,44.6061761,-69.662825,61,FAIRFIELD CENTER,ME,SOMERSET COUNTY,01/30/1807,9/30/35,
1807,44.6697805,-74.9813084,132,POTSDAM,NY,SAINT LAWRENCE COUNTY,03/06/1807,,13676
1807,40.3617591,-76.1841139,123,WOMELSDORF,PA,BERKS COUNTY,03/07/1807,,19567
1807,40.9414873,-73.1059414,20,EAST SETAUKET,NY,SUFFOLK COUNTY,03/24/1807,,11733
1807,43.3095164,-73.6440058,105,GLENS FALLS,NY,WARREN COUNTY,03/31/1807,,12801
1807,36.2522766,-85.951654,157,CARTHAGE,TN,SMITH COUNTY,04/01/1807,,37030
1807,33.8360035,-79.0478143,10,CONWAY,SC,HORRY COUNTY,04/01/1807,,29526
1807,44.3839557,-70.2492247,125,LIVERMORE,ME,ANDROSCOGGIN COUNTY,04/01/1807,,4253
1807,40.0631256,-81.0742677,385,MORRISTOWN,OH,BELMONT COUNTY,04/01/1807,,43759
1807,39.987325,-76.0205073,166,GAP,PA,LANCASTER COUNTY,04/13/1807,,17527
1807,,,,PERCIVAL'S,VA,BRUNSWICK COUNTY,04/13/1807,03/02/1846,
1807,41.8492599,-73.5567919,173,AMENIA,NY,DUTCHESS COUNTY,07/01/1807,,12501
1807,43.146194,-71.2164524,159,DEERFIELD,NH,ROCKINGHAM COUNTY,07/01/1807,12/30/64,
1807,36.4878291,-87.8383567,126,DOVER,TN,STEWART COUNTY,07/01/1807,,37058
1807,42.3278477,-77.6611025,354,HORNELL,NY,STEUBEN COUNTY,07/01/1807,,14843
1807,43.6442352,-76.0860345,152,SANDY CREEK,NY,OSWEGO COUNTY,07/10/1807,,13145
1807,44.1992272,-75.6068791,156,ANTWERP,NY,JEFFERSON COUNTY,07/24/1807,,13608
1807,,,,BEANS STATION,TN,GRAINGER COUNTY,08/18/1807,1/15/01,
1807,42.6767568,-71.4245085,42,TYNGSBORO,MA,MIDDLESEX COUNTY,09/17/1807,,1879
1807,40.0395169,-80.2050603,365,AMITY,PA,WASHINGTON COUNTY,09/23/1807,,15311
1807,42.4334258,-71.6078449,117,BOLTON,MA,WORCESTER COUNTY,10/01/1807,,1740
1807,42.8792376,-75.2509971,369,BRIDGEWATER,NY,ONEIDA COUNTY,10/01/1807,,13313
1807,40.031183,-81.5884561,253,CAMBRIDGE,OH,GUERNSEY COUNTY,10/01/1807,,43725
1807,41.3950489,-82.5551733,179,HURON,OH,ERIE COUNTY,10/01/1807,,44839
1807,43.1725552,-79.0358783,116,LEWISTON,NY,NIAGARA COUNTY,10/01/1807,,14092
1807,42.9047857,-77.611387,252,LIMA,NY,LIVINGSTON COUNTY,10/01/1807,,14485
1807,40.0386822,-81.4445621,309,OLD WASHINGTON,OH,GUERNSEY COUNTY,10/01/1807,,43768
1807,42.2934131,-75.4793477,303,BAINBRIDGE,NY,CHENANGO COUNTY,10/10/1807,,13733
1807,39.4284503,-74.4957076,8,ABSECON,NJ,ATLANTIC COUNTY,10/19/1807,,8201
1807,37.4992986,-79.8772647,378,FINCASTLE,VA,BOTETOURT COUNTY,11/03/1807,,24090
1807,42.0681501,-72.6787027,68,FEEDING HILLS,MA,HAMPDEN COUNTY,12/15/1807,,1030
1807,42.6653488,-76.6166113,291,KING FERRY,NY,CAYUGA COUNTY,12/15/1807,,13081
1808,38.3742854,-75.7424304,5,QUANTICO,MD,WICOMICO COUNTY,01/01/1808,,21856
1808,41.6603329,-80.8606439,245,ROCK CREEK,OH,ASHTABULA COUNTY,01/01/1808,,44084
1808,40.3064812,-75.987714,116,MONTROSE,PA,SUSQUEHANNA COUNTY,03/01/1808,,18801
1808,35.059527,-86.968062,193,LIBERTY,TN,DE KALB COUNTY,03/10/1808,,37095
1808,40.0089827,-77.1155359,187,YORK SPRINGS,PA,YORK COUNTY,03/21/1808,,17372
1808,43.7664565,-75.9593643,305,LORRAINE,NY,JEFFERSON COUNTY,04/01/1808,,13659
1808,43.7067329,-73.0281647,172,PITTSFORD,VT,RUTLAND COUNTY,04/01/1808,,5763
1808,43.4856255,-73.1181624,274,MIDDLETOWN SPRINGS,VT,RUTLAND COUNTY,04/06/1808,,5757
1808,,,,BETTSBURGH,NY,CHENANGO COUNTY,04/11/1808,02/20/1838,
1808,30.1010323,-90.9928773,7,DONALDSONVILLE,LA,ASCENSION PARISH,06/17/1808,,70346
1808,43.6525664,-73.8009597,257,CHESTERTOWN,NY,WARREN COUNTY,06/27/1808,,12817
1808,37.7859741,-77.1049728,11,AYLETT,VA,KING WILLIAM COUNTY,07/01/1808,,23009
1808,35.1654216,-80.8706278,210,CURRITUCK,NC,CURRITUCK COUNTY,07/01/1808,,27929
1808,35.3700774,-88.2939277,154,LEBANON,TN,WILSON COUNTY,07/01/1808,,37087
1808,38.7317431,-82.9976742,162,PORTSMOUTH,OH,SCIOTO COUNTY,07/01/1808,,45662
1808,41.6023245,-71.2503257,43,PORTSMOUTH,RI,NEWPORT COUNTY,07/01/1808,,2871
1808,42.6667555,-71.7050718,95,TOWNSEND,MA,MIDDLESEX COUNTY,07/01/1808,,1469
1808,41.7486838,-77.3005305,397,WELLSBORO,PA,TIOGA COUNTY,07/01/1808,,16901
1808,42.2331295,-77.1974748,309,CAMPBELL,NY,STEUBEN COUNTY,08/31/1808,,14821
1808,44.727284,-75.3210467,103,LISBON,NY,SAINT LAWRENCE COUNTY,10/01/1808,12/31/01,
1808,38.6837271,-77.260261,2,OCCOQUAN,VA,PRINCE WILLIAM COUNTY,10/01/1808,,22125
1808,44.4053306,-72.9929016,105,RICHMOND,VT,CHITTENDEN COUNTY,10/01/1808,,5477
1808,36.7895932,-76.1246568,3,SALEM,VA,ROANOKE COUNTY,10/01/1808,,24153
1808,34.9676167,-82.4434548,334,TRAVELERS REST,SC,GREENVILLE COUNTY,10/01/1808,,29690
1808,41.2378345,-80.6642432,350,VIENNA,OH,TRUMBULL COUNTY,11/25/1808,,44473
1809,42.1372967,-76.9369067,275,BIG FLATS,NY,CHEMUNG COUNTY,01/01/1809,,14814
1809,34.6429073,-81.857878,204,CROSS ANCHOR,SC,SPARTANBURG COUNTY,01/01/1809,,29331
1809,36.0984684,-80.760345,311,HAMPTONVILLE,NC,YADKIN COUNTY,01/01/1809,,27020
1809,42.6872921,-75.5707376,367,SMYRNA,NY,CHENANGO COUNTY,01/01/1809,,13464
1809,43.4836801,-75.3365607,350,BOONVILLE,NY,ONEIDA COUNTY,01/07/1809,,13309
1809,42.8497907,-75.6118485,367,EATON,NY,MADISON COUNTY,01/14/1809,,13334
1809,38.5915023,-75.2913018,7,MILLSBORO,DE,SUSSEX COUNTY,02/16/1809,,19966
1809,33.3267997,-83.3884961,172,EATONTON,GA,PUTNAM COUNTY,04/01/1809,,31024
1809,32.341536,-85.0215983,108,FORT MITCHELL,AL,RUSSELL COUNTY,04/01/1809,,36856
1809,40.2653681,-76.7083033,117,HUMMELSTOWN,PA,DAUPHIN COUNTY,04/01/1809,,17036
1809,40.7767611,-75.608242,116,LEHIGH GAP,PA,NORTHAMPTON COUNTY,04/01/1809,05/19/1818,
1809,,,,PRITCHETTS STORE,VA,BRUNSWICK COUNTY,04/01/1809,04/14/1815,
1809,30.1252011,-91.8334498,7,SAINT MARTINVILLE,LA,SAINT MARTIN PARISH,04/01/1809,,70582
1809,40.1083912,-83.7524298,320,URBANA,OH,CHAMPAIGN COUNTY,04/01/1809,,43078
1809,36.394584,-79.1544596,185,LEASBURG,NC,CASWELL COUNTY,04/13/1809,,27291
1809,42.4400576,-79.3317105,220,FREDONIA,NY,CHAUTAUQUA COUNTY,05/06/1809,,14063
1809,41.14,-73.6838889,182,NORTH CASTLE,NY,WESTCHESTER COUNTY,06/05/1809,4/30/06,
1809,41.7959352,-71.0678212,7,ASSONET,MA,BRISTOL COUNTY,06/09/1809,,2702
1809,40.654813,-76.1007713,190,ORWIGSBURG,PA,SCHUYLKILL COUNTY,06/12/1809,,17961
1809,40.0856526,-76.2082876,129,LEACOCK,PA,LANCASTER COUNTY,06/22/1809,7/31/59,
1809,39.1753377,-84.2943821,167,MILFORD,OH,CLERMONT COUNTY,06/27/1809,,45150
1809,42.3067345,-78.0158388,437,ANGELICA,NY,ALLEGANY COUNTY,07/01/1809,,14709
1809,40.4311796,-79.260869,308,BLAIRSVILLE,PA,INDIANA COUNTY,07/01/1809,,15717
1809,41.5964825,-73.91097,47,WAPPINGERS FALLS,NY,DUTCHESS COUNTY,09/17/1809,,12590
1809,,,,BLUE LICK SPRINGS,KY,NICHOLAS COUNTY,10/01/1809,5/31/19,
1809,43.0786778,-76.3285422,128,NEWPORT,NY,HERKIMER COUNTY,10/01/1809,,13416
1809,43.0944999,-79.0567111,187,NIAGARA FALLS,NY,NIAGARA COUNTY,10/01/1809,,14302
1809,41.9126029,-70.7661491,47,WENHAM,MA,ESSEX COUNTY,10/01/1809,,1984
1809,33.9720653,-82.4667968,148,WILLINGTON,SC,MC CORMICK COUNTY,10/01/1809,5/15/85,29852
1809,44.7503369,-75.1310364,99,MADRID,NY,SAINT LAWRENCE COUNTY,11/09/1809,,13660
1810,38.5217907,-77.6094323,124,SOMERVILLE,VA,FAUQUIER COUNTY,00/00/1810,5/22/93,22739
1810,43.0586846,-74.1965206,245,BROADALBIN,NY,FULTON COUNTY,01/01/1810,,12025
1810,39.1731621,-77.2716502,134,GERMANTOWN,MD,MONTGOMERY COUNTY,01/01/1810,,20874
1810,44.8486596,-74.2948984,217,MALONE,NY,FRANKLIN COUNTY,01/01/1810,,12953
1810,42.2420265,-75.3773999,394,MASONVILLE,NY,DELAWARE COUNTY,01/01/1810,,13804
1810,,,,CLEMMONS BRIDGE,NC,ROWAN COUNTY,03/31/1810,00/00/1816,
1810,40.1742757,-75.1068388,69,HATBORO,PA,MONTGOMERY COUNTY,04/01/1810,,19040
1810,40.4897871,-81.4456706,276,NEW PHILADELPHIA,OH,TUSCARAWAS COUNTY,04/23/1810,,44663
1810,41.740657,-71.3086618,7,BARRINGTON,RI,BRISTOL COUNTY,05/12/1810,10/27/1898,
1810,38.4376271,-78.1383336,168,LEON,VA,MADISON COUNTY,06/05/1810,,22725
1810,42.2353704,-72.1411888,191,WEST BROOKFIELD,MA,WORCESTER COUNTY,07/01/1810,,1585
1810,42.0548167,-72.7703724,81,SOUTHWICK,MA,HAMPDEN COUNTY,07/17/1810,,1077
1810,36.0726355,-79.7919754,252,GREENSBORO,NC,GUILFORD COUNTY,09/04/1810,,27420
1810,37.7965107,-80.2975704,566,WHITE SULPHUR SPRINGS,WV,GREENBRIER COUNTY,09/05/1810,,24986
1810,40.0025737,-79.9981076,237,FREDERICKTOWN,PA,WASHINGTON COUNTY,10/01/1810,,15333
1810,44.4189486,-71.4745254,425,JEFFERSON,NH,COOS COUNTY,10/01/1810,,3583
1810,38.4220694,-77.4083162,54,STAFFORD,VA,STAFFORD COUNTY,10/01/1810,,22554
1810,38.6715081,-77.9955519,156,AMISSVILLE,VA,RAPPAHANNOCK COUNTY,10/02/1810,,20106
1810,44.5217205,-72.3087159,329,EAST HARDWICK,VT,CALEDONIA COUNTY,10/10/1810,,5836
1810,39.1459392,-77.4169311,125,POOLESVILLE,MD,MONTGOMERY COUNTY,12/05/1810,,20837
1810,41.3914877,-71.9617401,4,OLD MYSTIC,CT,NEW LONDON COUNTY,12/10/1810,,6372
1810,41.1953739,-73.4378988,76,WILTON,CT,FAIRFIELD COUNTY,12/19/1810,,6897
1810,42.2439811,-71.992297,259,SPENCER,MA,WORCESTER COUNTY,12/27/1810,,1562
1810,41.6259357,-71.2133801,3,TIVERTON,RI,NEWPORT COUNTY,12/28/1810,,2878
1810,,,,EAST WINDSOR,CT,HARTFORD COUNTY,12/31/1810,05/23/1842,
1811,42.6242495,-73.117603,242,ADAMS,MA,BERKSHIRE COUNTY,01/01/1811,,1220
1811,43.7072867,-73.1842783,134,HUBBARDTON,VT,RUTLAND COUNTY,01/05/1811,4/26/74,
1811,41.7059217,-75.0604458,225,COCHECTON,NY,SULLIVAN COUNTY,01/10/1811,,12726
1811,40.1075615,-83.2674165,285,PLAIN CITY,OH,MADISON COUNTY,01/11/1811,,43064
1811,42.6170149,-75.6024065,379,PLYMOUTH,NY,CHENANGO COUNTY,01/11/1811,,13832
1811,42.6242404,-75.33156,339,NEW BERLIN,NY,CHENANGO COUNTY,01/12/1811,,13411
1811,40.3703586,-77.6047123,191,EAST WATERFORD,PA,JUNIATA COUNTY,01/16/1811,,17021
1811,41.0517525,-76.6746791,165,WASHINGTONVILLE,PA,MONTOUR COUNTY,01/17/1811,,17884
1811,43.0642305,-76.9902456,125,LYONS,NY,WAYNE COUNTY,01/22/1811,,14489
1811,35.1520266,-86.5705508,215,FAYETTEVILLE,TN,LINCOLN COUNTY,01/23/1811,,37334
1811,41.4409323,-71.8811827,43,NORTH STONINGTON,CT,NEW LONDON COUNTY,01/24/1811,,6359
1811,39.3898359,-75.3385267,3,GREENWICH,NJ,CUMBERLAND COUNTY,01/25/1811,,8323
1811,41.3281498,-73.6856857,85,SOMERS,NY,WESTCHESTER COUNTY,01/29/1811,,10589
1811,38.9486757,-84.2799366,143,NEW RICHMOND,OH,CLERMONT COUNTY,02/01/1811,,45157
1811,37.936438,-90.7879086,275,POTOSI,MO,WASHINGTON COUNTY,02/06/1811,,63664
1811,43.8470075,-76.1818714,106,HENDERSON,NY,JEFFERSON COUNTY,02/14/1811,,13650
1811,36.0712677,-77.3410782,26,PALMYRA,NC,HALIFAX COUNTY,02/16/1811,,27859
1811,35.9943032,-79.9353142,242,JAMESTOWN,NC,GUILFORD COUNTY,02/21/1811,,27282
1811,41.6770338,-74.8279413,407,WHITE LAKE,NY,SULLIVAN COUNTY,02/21/1811,,12786
1811,41.700101,-71.4161671,11,WARWICK,RI,KENT COUNTY,02/22/1811,,2886
1811,39.5422953,-81.639851,198,WATERFORD,OH,WASHINGTON COUNTY,03/09/1811,,45786
1811,43.0906186,-77.5149969,150,PITTSFORD,NY,MONROE COUNTY,03/19/1811,,14534
1811,40.4811721,-82.5407213,335,FREDERICKTOWN,OH,KNOX COUNTY,03/26/1811,,43019
1811,40.8398226,-73.8776356,5,WEST FARMS,NY,NEW YORK COUNTY,03/27/1811,03/17/1875,
1811,38.2120121,-86.1219155,179,CORYDON,IN,HARRISON COUNTY,04/01/1811,,47112
1811,43.6939614,-71.8056359,189,HEBRON,NH,GRAFTON COUNTY,04/01/1811,,3241
1811,41.6556465,-74.6893282,461,MONTICELLO,NY,SULLIVAN COUNTY,04/01/1811,,12701
1811,42.617016,-75.5268475,316,NORTH NORWICH,NY,CHENANGO COUNTY,04/01/1811,,13814
1811,37.713102,-88.1867027,122,SHAWNEETOWN,IL,GALLATIN COUNTY,04/01/1811,,62984
1811,43.2717323,-76.9891355,84,SODUS POINT,NY,WAYNE COUNTY,04/01/1811,,14555
1811,40.103411,-78.9494693,559,STOYSTOWN,PA,SOMERSET COUNTY,04/01/1811,,15563
1811,41.7412051,-73.5765151,122,DOVER PLAINS,NY,DUTCHESS COUNTY,04/09/1811,,12522
1811,42.8214526,-77.6386087,331,LIVONIA CENTER,NY,LIVINGSTON COUNTY,04/09/1811,,14488
1811,37.7504205,-78.2358355,118,CLOVERDALE,VA,BOTETOURT COUNTY,04/11/1811,,24077
1811,43.0473014,-72.6675931,176,TOWNSHEND,VT,WINDHAM COUNTY,04/12/1811,,5353
1811,40.7945096,-80.1367271,289,ZELIENOPLE,PA,BUTLER COUNTY,04/25/1811,,16063
1811,39.1870554,-75.8588257,20,SUDLERSVILLE,MD,QUEEN ANNES COUNTY,05/00/1811,,21668
1811,39.600618,-82.9460133,212,CIRCLEVILLE,OH,PICKAWAY COUNTY,05/12/1811,,43113
1811,,,,WESTPORT,MA,BRISTOL COUNTY,05/18/1811,,2790
1811,41.5264669,-75.7054688,390,WAVERLY,PA,LACKAWANNA COUNTY,06/25/1811,,18471
1811,,,,WALNUTGROVE,SC,SPARTANBURG COUNTY,06/26/1811,10/31/03,
1811,43.9261752,-72.8412203,276,HANCOCK,VT,ADDISON COUNTY,07/01/1811,,5748
1811,39.5053904,-75.4618652,1,HANCOCKS BRIDGE,NJ,SALEM COUNTY,07/01/1811,,8038
1811,41.4612105,-71.7775687,51,HOPKINTON,RI,WASHINGTON COUNTY,07/01/1811,,2833
1811,34.7303688,-86.5861037,193,HUNTSVILLE,AL,MADISON COUNTY,07/01/1811,,35813
1811,40.2784256,-76.3163447,158,JOHNSTOWN,PA,CAMBRIA COUNTY,07/01/1811,,15901
1811,39.4717557,-79.6833884,553,KINGWOOD,WV,UPSHUR COUNTY,07/01/1811,,26537
1811,40.75839,-82.5154471,378,MANSFIELD,OH,RICHLAND COUNTY,07/01/1811,,44901
1811,44.2781151,-72.4264926,232,PLAINFIELD,VT,WASHINGTON COUNTY,07/01/1811,,5667
1811,42.5422939,-76.6660589,294,TRUMANSBURG,NY,TOMPKINS COUNTY,07/01/1811,,14886
1811,41.8725781,-75.7271318,339,NEW MILFORD,PA,SUSQUEHANNA COUNTY,07/06/1811,,18834
1811,41.4219889,-82.3646068,181,VERMILION,OH,ERIE COUNTY,08/27/1811,,44089
1811,42.9920106,-76.0715887,185,JAMESVILLE,NY,ONONDAGA COUNTY,09/02/1811,,13078
1811,43.7861774,-72.753715,260,STOCKBRIDGE,VT,WINDSOR COUNTY,09/03/1811,,5772
1811,32.1785145,-82.5945783,69,MOUNT VERNON,GA,MONTGOMERY COUNTY,09/04/1811,,30445
1811,43.106456,-76.2177046,128,LIVERPOOL,NY,ONONDAGA COUNTY,09/09/1811,,13088
1811,44.8008872,-74.9910336,79,NORFOLK,NY,SAINT LAWRENCE COUNTY,09/09/1811,,13667
1811,42.3234196,-73.5459487,209,SPENCERTOWN,NY,COLUMBIA COUNTY,09/12/1811,,12165
1811,42.4406387,-73.5617812,163,OLD CHATHAM,NY,COLUMBIA COUNTY,09/13/1811,,12136
1811,44.9281049,-74.891865,70,MASSENA,NY,SAINT LAWRENCE COUNTY,09/19/1811,,13662
1811,42.4909053,-76.2971553,332,DRYDEN,NY,TOMPKINS COUNTY,10/01/1811,,13053
1811,36.4370083,-85.2424622,311,MONROE,TN,OVERTON COUNTY,10/01/1811,,38573
1811,42.9856359,-72.6559259,169,NEWFANE,VT,WINDHAM COUNTY,10/01/1811,,5345
1811,38.2833879,-90.3951204,137,PEVELY,MO,JEFFERSON COUNTY,10/01/1811,,63070
1811,35.1998023,-87.0308412,213,PULASKI,TN,GILES COUNTY,10/01/1811,,38478
1811,40.4620172,-78.199732,258,WILLIAMSBURG,PA,BLAIR COUNTY,10/01/1811,,16693
1811,39.4409277,-78.9739156,246,KEYSER,WV,MINERAL COUNTY,10/30/1811,,26726
1811,42.6106479,-71.2342248,37,TEWKSBURY,MA,MIDDLESEX COUNTY,12/03/1811,,1876
1811,41.2339452,-80.5695174,353,BROOKFIELD,OH,TRUMBULL COUNTY,12/04/1811,,44403
1811,41.4706089,-81.1450995,400,BURTON,OH,GEAUGA COUNTY,12/25/1811,,44021
1812,30.4507462,-91.154551,14,BATON ROUGE,LA,EAST BATON ROUGE PARISH,01/01/1812,,70821
1812,41.8834363,-70.7625376,30,CARVER,MA,PLYMOUTH COUNTY,01/01/1812,,2330
1812,32.8112594,-83.1726541,130,IRWINTON,GA,WILKINSON COUNTY,01/01/1812,,31042
1812,42.7734163,-72.3831422,135,WINCHESTER,NH,CHESHIRE COUNTY,01/01/1812,,3470
1812,36.6443132,-77.9583268,108,WHITE PLAINS,VA,BRUNSWICK COUNTY,01/15/1812,,23893
1812,42.5256502,-71.0953314,28,READING,MA,MIDDLESEX COUNTY,01/16/1812,,1867
1812,42.4473175,-71.2245003,65,LEXINGTON,MA,MIDDLESEX COUNTY,02/10/1812,12/31/25,
1812,44.9969898,-72.6712423,141,RICHFORD,VT,FRANKLIN COUNTY,03/13/1812,,5476
1812,42.98007,-75.2509966,293,CLAYVILLE,NY,ONEIDA COUNTY,03/18/1812,,13322
1812,39.9831616,-75.8238355,97,COATESVILLE,PA,CHESTER COUNTY,04/01/1812,,19320
1812,41.7848155,-73.9331924,57,HYDE PARK,NY,DUTCHESS COUNTY,04/14/1812,,12538
1812,43.1303407,-77.475551,129,PENFIELD,NY,MONROE COUNTY,04/23/1812,,14526
1812,40.9167654,-74.171811,26,PATERSON,NJ,PASSAIC COUNTY,05/09/1812,,7510
1812,42.3642517,-73.5948391,141,CHATHAM,NY,COLUMBIA COUNTY,05/13/1812,,12037
1812,41.1289854,-74.72822,151,AUGUSTA,NJ,SUSSEX COUNTY,05/15/1812,,7822
1812,42.5828467,-75.781026,476,PHARSALIA,NY,CHENANGO COUNTY,06/10/1812,12/30/19,
1812,44.4959099,-68.5016874,17,SURRY,ME,HANCOCK COUNTY,06/15/1812,,4684
1812,42.9697857,-77.2302586,180,MANCHESTER,NY,ONTARIO COUNTY,06/22/1812,,14504
1812,44.4295059,-75.1499264,188,RUSSELL,NY,SAINT LAWRENCE COUNTY,06/27/1812,,13684
1812,42.5161888,-74.1379131,416,RENSSELAERVILLE,NY,ALBANY COUNTY,06/30/1812,,12147
1812,43.2806329,-71.8167461,135,WARNER,NH,MERRIMACK COUNTY,06/30/1812,,3278
1812,,,,BAIRDS FORGE,NC,BURKE COUNTY,07/04/1812,04/30/1836,
1812,36.2087468,-79.9047583,276,SUMMERFIELD,NC,GUILFORD COUNTY,08/01/1812,,27358
1812,40.9487097,-73.7326309,0,MAMARONECK,NY,WESTCHESTER COUNTY,09/23/1812,,10543
1812,44.3036899,-68.6161357,7,SEDGWICK,ME,HANCOCK COUNTY,09/25/1812,,4676
1812,43.7903513,-71.4111842,241,SANDWICH,NH,CARROLL COUNTY,09/26/1812,6/4/88,3270
1812,39.5889939,-76.6633047,208,HEREFORD,MD,BALTIMORE COUNTY,10/01/1812,8/31/03,
1812,40.5617332,-80.4028424,367,MECHANICSBURG,PA,CUMBERLAND COUNTY,10/01/1812,,17055
1812,43.0309142,-71.9389689,214,ANTRIM,NH,HILLSBOROUGH COUNTY,10/27/1812,,3440
1812,42.7600665,-77.226367,267,RUSHVILLE,NY,YATES COUNTY,11/09/1812,,14544
1812,42.9728594,-71.9798028,266,HANCOCK,NH,HILLSBOROUGH COUNTY,11/10/1812,,3449
1812,43.8095143,-72.1559219,166,LYME,NH,GRAFTON COUNTY,11/13/1812,,3768
1812,37.6279163,-79.1716949,291,BROWNTOWN,VA,WARREN COUNTY,11/14/1812,9/27/63,
1812,43.1547845,-77.6155568,154,ROCHESTER,NY,MONROE COUNTY,11/19/1812,,14692
1812,41.3967634,-73.0759416,31,SEYMOUR,CT,NEW HAVEN COUNTY,11/24/1812,,6483
1812,40.8050565,-81.935143,304,WOOSTER,OH,WAYNE COUNTY,12/08/1812,,44691
1812,42.859526,-72.7259271,531,MARLBORO,VT,WINDHAM COUNTY,12/18/1812,,5344
1812,40.1753485,-80.7978631,380,MOUNT PLEASANT,OH,JEFFERSON COUNTY,12/19/1812,,43939
1812,,,,FORDSVILLE,MS,MARION COUNTY,12/26/1812,04/03/1878,
1813,44.9892075,-74.4946381,55,FORT COVINGTON,NY,FRANKLIN COUNTY,00/00/1813,,12937
1813,43.0853387,-77.9422336,185,BERGEN,NY,GENESEE COUNTY,01/01/1813,,14416
1813,40.4284015,-79.697545,276,MURRYSVILLE,PA,WESTMORELAND COUNTY,01/01/1813,,15668
1813,,,,KITES MILLS,VA,PAGE COUNTY,01/13/1813,01/19/1839,
1813,43.4797914,-76.3152105,129,NEW HAVEN,NY,OSWEGO COUNTY,01/19/1813,,13121
1813,43.2395135,-75.7024065,141,VIENNA,NY,ONEIDA COUNTY,01/21/1813,4/30/15,
1813,38.7128871,-79.9789588,621,HUTTONSVILLE,WV,RANDOLPH COUNTY,01/25/1813,,26273
1813,43.4653465,-76.4304934,112,SCRIBA,NY,OSWEGO COUNTY,01/27/1813,9/30/05,
1813,38.1373578,-78.187781,146,GORDONSVILLE,VA,ORANGE COUNTY,02/02/1813,,22942
1813,41.6397696,-81.4065011,201,WILLOUGHBY,OH,LAKE COUNTY,02/04/1813,,44094
1813,39.045355,-82.1304226,175,RUTLAND,OH,MEIGS COUNTY,02/05/1813,,45775
1813,40.9103338,-82.6293412,332,LONDON,OH,MADISON COUNTY,02/12/1813,,43140
1813,44.6453229,-73.3023533,46,SOUTH HERO,VT,GRAND ISLE COUNTY,02/15/1813,,5486
1813,41.4278716,-74.1659798,93,WASHINGTONVILLE,NY,ORANGE COUNTY,03/03/1813,,10992
1813,42.661204,-70.9967205,31,BOXFORD,MA,ESSEX COUNTY,03/12/1813,,1921
1813,37.080428,-77.9972259,131,BLACKSTONE,VA,NOTTOWAY COUNTY,04/01/1813,,23824
1813,42.9731175,-77.852785,201,CALEDONIA,NY,LIVINGSTON COUNTY,04/01/1813,,14423
1813,42.7989556,-77.1316402,271,GORHAM,NY,ONTARIO COUNTY,04/01/1813,,14461
1813,39.9309089,-79.6578191,342,YOUNGSTOWN,PA,WESTMORELAND COUNTY,04/01/1813,,15696
1813,42.6709176,-72.5495336,109,BERNARDSTON,MA,FRANKLIN COUNTY,04/08/1813,,1337
1813,37.4800544,-86.2938637,227,LEITCHFIELD,KY,GRAYSON COUNTY,04/10/1813,,42754
1813,37.2256023,-86.6835998,172,MORGANTOWN,KY,BUTLER COUNTY,04/12/1813,,42261
1813,40.0570411,-76.5521882,84,MARIETTA,PA,LANCASTER COUNTY,04/16/1813,,17547
1813,30.6943566,-88.0430541,3,MOBILE,AL,MOBILE COUNTY,05/00/1813,,36601
1813,39.4453393,-83.8285375,310,WILMINGTON,OH,CLINTON COUNTY,05/04/1813,,45177
1813,39.8231643,-75.869665,176,JENNERSVILLE,PA,CHESTER COUNTY,06/05/1813,2/29/04,
1813,42.9162011,-70.8636648,19,HAMPTON FALLS,NH,ROCKINGHAM COUNTY,06/16/1813,,3844
1813,39.9881261,-81.1764961,387,BARNESVILLE,OH,BELMONT COUNTY,06/22/1813,,43713
1813,43.4595138,-76.2288176,125,MEXICO,NY,OSWEGO COUNTY,07/01/1813,,13114
1813,38.3142821,-75.1907436,3,TRAPPE,MD,TALBOT COUNTY,07/01/1813,,21673
1813,43.0203609,-71.600349,95,GOFFSTOWN,NH,HILLSBOROUGH COUNTY,07/08/1813,,3045
1813,39.4739514,-82.9107333,241,KINGSTON,OH,ROSS COUNTY,07/15/1813,,45644
1813,43.3636827,-73.5315025,93,KINGSBURY,NY,WASHINGTON COUNTY,07/24/1813,10/31/21,
1813,42.700915,-73.1087148,220,NORTH ADAMS,MA,BERKSHIRE COUNTY,07/26/1813,,1247
1813,44.6286705,-74.8138041,272,PARISHVILLE,NY,SAINT LAWRENCE COUNTY,08/02/1813,,13672
1813,35.8456213,-86.39027,186,MURFREESBORO,TN,RUTHERFORD COUNTY,08/06/1813,,37130
1813,,,,FIELDS MILLS,VA,BRUNSWICK COUNTY,08/07/1813,00/00/1822,
1813,39.9611755,-82.9987942,235,COLUMBUS,OH,FRANKLIN COUNTY,08/13/1813,,43216
1813,42.7225677,-75.7199101,413,OTSELIC,NY,CHENANGO COUNTY,08/13/1813,,13129
1813,,,,SMITH'S STORE,SC,SPARTANBURG COUNTY,08/28/1813,01/18/1844,
1813,,,,DUPLIN OLD COURT HOUSE,NC,DUPLIN COUNTY,09/13/1813,11/30/1841,
1813,30.4754702,-90.1009108,8,COVINGTON,LA,SAINT TAMMANY PARISH,11/08/1813,,70433
1813,30.2576953,-91.0992706,7,SAINT GABRIEL,LA,IBERVILLE PARISH,12/01/1813,,70776
1814,44.3806065,-73.227626,47,SHELBURNE,VT,CHITTENDEN COUNTY,01/13/1814,,5482
1814,37.9412507,-77.6544326,87,BEAVERDAM,VA,HANOVER COUNTY,01/15/1814,,23015
1814,38.2856247,-85.8241312,137,NEW ALBANY,IN,FLOYD COUNTY,01/25/1814,,47150
1814,43.9697892,-72.0806443,158,PIERMONT,NH,GRAFTON COUNTY,02/11/1814,,3779
1814,33.5123582,-81.9390035,135,BRADLEYVILLE,SC,SUMTER COUNTY,02/23/1814,03/30/1861,
1814,,,,COFFEE FERRY,KY,PULASKI COUNTY,02/28/1814,05/00/1819,
1814,30.0035365,-91.8187285,5,NEW IBERIA,LA,IBERIA PARISH,03/02/1814,,70560
1814,36.3464805,-83.2282266,332,MOORESBURG,TN,HAWKINS COUNTY,03/04/1814,,37811
1814,38.9412244,-76.0804996,6,WYE MILLS,MD,TALBOT COUNTY,03/26/1814,,21679
1814,42.8642267,-78.2802946,299,ATTICA,NY,WYOMING COUNTY,04/06/1814,,14011
1814,41.1014451,-81.441779,339,TALLMADGE,OH,SUMMIT COUNTY,04/09/1814,,44278
1814,42.6764593,-76.8230111,295,OVID,NY,SENECA COUNTY,04/13/1814,,14521
1814,44.3750471,-73.7281951,216,JAY,NY,ESSEX COUNTY,04/17/1814,,12941
1814,43.2331158,-77.9275129,130,CLARKSON,NY,MONROE COUNTY,04/18/1814,,14430
1814,35.4125782,-85.9702614,324,HILLSBORO,TN,COFFEE COUNTY,04/21/1814,,37342
1814,36.726532,-78.1288857,137,SOUTH HILL,VA,MECKLENBURG COUNTY,04/23/1814,,23970
1814,39.8984042,-81.8273541,220,CHANDLERSVILLE,OH,MUSKINGUM COUNTY,04/28/1814,,43727
1814,37.798754,-78.4955648,85,SCOTTSVILLE,VA,ALBEMARLE COUNTY,04/29/1814,,24590
1814,39.9148123,-77.9047206,193,FORT LOUDON,PA,FRANKLIN COUNTY,05/03/1814,,17224
1814,42.1042612,-72.3189699,131,MONSON,MA,HAMPDEN COUNTY,06/24/1814,,1057
1814,38.1448015,-83.7640847,306,OWINGSVILLE,KY,BATH COUNTY,07/01/1814,,40360
1814,39.2020121,-82.8137836,181,RICHMOND DALE,OH,ROSS COUNTY,07/01/1814,,45673
1814,40.4589248,-86.4888865,231,LEXINGTON,IN,SCOTT COUNTY,07/14/1814,,47138
1814,38.8503923,-76.5960728,47,WEST RIVER,MD,ANNE ARUNDEL COUNTY,07/18/1814,,20778
1814,42.1250995,-71.1022712,71,STOUGHTON,MA,NORFOLK COUNTY,08/08/1814,,2072
1814,40.9006335,-77.1560861,200,HARTLETON,PA,UNION COUNTY,10/10/1814,,17829
1814,38.7459482,-78.6422377,277,MOUNT JACKSON,VA,SHENANDOAH COUNTY,10/25/1814,,22842
1814,42.7247963,-75.0048795,389,OAKSVILLE,NY,OTSEGO COUNTY,10/26/1814,08/15/1815,
1814,39.1981593,-77.538322,85,GORESVILLE,VA,LOUDOUN COUNTY,10/27/1814,06/30/1892,
1814,39.2864787,-80.2561981,311,BRIDGEPORT,WV,HARRISON COUNTY,10/28/1814,,26330
1814,40.9533947,-80.3828432,236,WILLOW GROVE,PA,MONTGOMERY COUNTY,10/31/1814,,19090
1814,42.2097963,-76.4932748,303,SPENCER,NY,TIOGA COUNTY,11/03/1814,,14883
1814,42.7384038,-76.6179999,320,POPLAR RIDGE,NY,CAYUGA COUNTY,11/08/1814,,13139
1814,42.2328518,-76.3424357,275,CANDOR,NY,TIOGA COUNTY,11/13/1814,,13743
1814,35.8275672,-86.0716565,220,WOODBURY,TN,CANNON COUNTY,11/25/1814,,37190
1814,41.6142173,-81.1489883,396,CHARDON,OH,GEAUGA COUNTY,12/05/1814,,44024
1814,40.3659394,-74.9429448,22,LAMBERTVILLE,NJ,HUNTERDON COUNTY,12/21/1814,,8530
1814,41.991213,-70.861985,25,HALIFAX,MA,PLYMOUTH COUNTY,12/30/1814,,2338
1815,42.6659088,-74.3095787,183,SCHOHARIE,NY,SCHOHARIE COUNTY,01/04/1815,,12157
1815,42.598687,-74.3329156,195,MIDDLEBURGH,NY,SCHOHARIE COUNTY,01/05/1815,,12122
1815,43.1586786,-76.3327095,116,BALDWINSVILLE,NY,ONONDAGA COUNTY,01/08/1815,,13027
1815,41.9539754,-75.2804502,281,HANCOCK,NY,DELAWARE COUNTY,01/10/1815,,13783
1815,39.7303382,-83.3935286,302,BETHEL,OH,CLERMONT COUNTY,01/11/1815,,45106
1815,44.5928394,-70.228117,168,WILTON,ME,FRANKLIN COUNTY,01/13/1815,,4294
1815,39.9162109,-76.5844107,208,WINDSOR,PA,YORK COUNTY,01/14/1815,,17366
1815,42.9825634,-77.4088794,176,VICTOR,NY,ONTARIO COUNTY,01/21/1815,,14564
1815,43.5839671,-71.2072903,170,WOLFEBORO,NH,CARROLL COUNTY,01/21/1815,,3894
1815,42.7861936,-72.4864773,64,HINSDALE,NH,CHESHIRE COUNTY,01/24/1815,,3451
1815,42.9978411,-77.5044401,171,MENDON,NY,MONROE COUNTY,01/30/1815,,14506
1815,,,,ENON COLLEGE,TN,TROUSDALE COUNTY,02/03/1815,9/30/04,
1815,,,,MC WHORTERS MILL(S),VA,HARRISON COUNTY,02/04/1815,01/08/1818,
1815,42.6373017,-73.5406697,238,SAND LAKE,NY,RENSSELAER COUNTY,02/04/1815,,12153
1815,40.3539926,-75.3048982,104,SELLERSVILLE,PA,BUCKS COUNTY,02/09/1815,,18960
1815,42.4384124,-74.6873749,508,HARPERSFIELD,NY,DELAWARE COUNTY,03/11/1815,,13786
1815,35.7989551,-86.8441672,233,HARPETH,TN,WILLIAMSON COUNTY,04/04/1815,06/28/1847,
1815,42.7511964,-72.0098021,397,RINDGE,NH,CHESHIRE COUNTY,04/26/1815,,3461
1815,41.1475954,-73.9893061,48,NEW CITY,NY,ROCKLAND COUNTY,05/12/1815,,10956
1815,42.9028547,-73.6873405,27,MECHANICVILLE,NY,SARATOGA COUNTY,06/14/1815,,12118
1815,38.599243,-83.3187952,164,VANCEBURG,KY,LEWIS COUNTY,07/03/1815,,41179
1815,42.6153453,-77.4024853,245,NAPLES,NY,ONTARIO COUNTY,07/25/1815,,14512
1815,42.7156175,-78.0055618,418,PERRY,NY,WYOMING COUNTY,07/31/1815,,14530
1815,41.6067211,-80.572296,333,ANDOVER,OH,ASHTABULA COUNTY,08/02/1815,,44003
1815,43.9781236,-75.6093591,234,CARTHAGE,NY,JEFFERSON COUNTY,08/29/1815,,13619
1815,39.9203526,-80.7431407,212,MOUNDSVILLE,WV,MARSHALL COUNTY,09/01/1815,,26041
1815,39.7625729,-81.1153842,367,WOODSFIELD,OH,MONROE COUNTY,09/02/1815,,43793
1815,40.1634279,-76.3949615,125,MANHEIM,PA,LANCASTER COUNTY,09/05/1815,,17545
1815,39.6445214,-80.8575993,190,NEW MARTINSVILLE,WV,WETZEL COUNTY,09/14/1815,,26155
1815,44.6119942,-73.0087453,136,WESTFORD,VT,CHITTENDEN COUNTY,09/14/1815,,5494
1815,39.1242444,-81.7354088,181,BELLEVILLE,WV,WOOD COUNTY,09/15/1815,,26133
1815,40.0481561,-76.0199496,151,SPRINGVILLE,PA,SUSQUEHANNA COUNTY,09/19/1815,,18844
1815,39.0836712,-84.5085537,155,COVINGTON,KY,KENTON COUNTY,10/03/1815,,41011
1815,43.0778615,-71.2767305,110,CANDIA,NH,ROCKINGHAM COUNTY,10/04/1815,,3034
1815,39.5934339,-77.1160936,200,UNIONTOWN,MD,FREDERICK COUNTY,10/05/1815,12/18/1899,
1815,40.5375793,-77.3533213,135,MEXICO,PA,JUNIATA COUNTY,10/11/1815,,17056
1815,41.9667666,-71.1869939,32,NORTON,MA,BRISTOL COUNTY,10/13/1815,,2766
1815,39.6442633,-77.5858238,222,CAVETOWN,MD,WASHINGTON COUNTY,10/14/1815,,21720
1815,43.2472768,-79.0500466,90,YOUNGSTOWN,NY,NIAGARA COUNTY,10/17/1815,,14174
1815,,,,DE WITT,NY,ONONDAGA COUNTY,11/11/1815,2/28/55,
1815,40.2958814,-84.3696712,297,NEWPORT,OH,WASHINGTON COUNTY,11/15/1815,,45768
1815,42.4264662,-75.3832319,314,MOUNT UPTON,NY,CHENANGO COUNTY,11/21/1815,,13809
1815,42.3159098,-75.6385205,506,COVENTRY,NY,CHENANGO COUNTY,12/04/1815,12/1/23,
1815,42.9947879,-76.5327176,181,SENNETT,NY,CAYUGA COUNTY,12/28/1815,1/23/93,13150
1815,39.0861892,-81.8037443,183,LONG BOTTOM,OH,MEIGS COUNTY,12/29/1815,,45743
1816,40.1109255,-77.034978,173,DILLSBURG,PA,FRANKLIN COUNTY,01/08/1816,,17019
1816,36.6209725,-78.9216766,150,CLUSTER SPRINGS,VA,HALIFAX COUNTY,01/13/1816,,24535
1816,40.7539844,-75.5385178,221,CHERRYVILLE,PA,NORTHAMPTON COUNTY,02/06/1816,,18035
1816,40.7251,-74.9090573,189,NEWPORT,NJ,CUMBERLAND COUNTY,02/06/1816,,8345
1816,37.650351,-84.9516234,256,PERRYVILLE,KY,BOYLE COUNTY,02/12/1816,,40468
1816,36.4409871,-76.611617,10,SUNBURY,NC,GATES COUNTY,02/12/1816,,27979
1816,41.7056643,-70.3744686,13,WEST BARNSTABLE,MA,BARNSTABLE COUNTY,02/16/1816,,2668
1816,38.2331873,-78.369175,185,RUCKERSVILLE,VA,GREENE COUNTY,02/17/1816,,22968
1816,42.677853,-74.4854172,281,COBLESKILL,NY,SCHOHARIE COUNTY,02/23/1816,,12043
1816,42.5364661,-74.8865453,375,MARYLAND,NY,OTSEGO COUNTY,02/23/1816,,12116
1816,36.1229347,-77.1766291,23,LEWISTON WOODVILLE,NC,BERTIE COUNTY,03/04/1816,,27849
1816,38.5392299,-85.420514,143,BETHLEHEM,IN,CLARK COUNTY,03/06/1816,,47104
1816,38.3334597,-77.1416436,41,HAMPSTEAD,VA,KING GEORGE COUNTY,03/08/1816,6/15/16,
1816,36.4142281,-85.4416363,333,HILHAM,TN,OVERTON COUNTY,03/13/1816,,38568
1816,38.5200504,-89.9839935,157,BELLEVILLE,IL,SAINT CLAIR COUNTY,03/14/1816,,62220
1816,42.910622,-76.7966215,137,SENECA FALLS,NY,SENECA COUNTY,03/15/1816,,13148
1816,41.7014912,-71.1550451,34,FALL RIVER,MA,BRISTOL COUNTY,03/18/1816,,2722
1816,38.9847765,-85.609412,202,VERNON,IN,JENNINGS COUNTY,04/01/1816,,47282
1816,37.3973437,-80.7992431,495,PETERSTOWN,WV,MONROE COUNTY,04/03/1816,,24963
1816,,,,ROADSIDE,VA,ROCKINGHAM COUNTY,04/06/1816,03/02/1870,
1816,40.969543,-72.6917637,31,CENTERVILLE,NY,ALLEGANY COUNTY,04/08/1816,,14029
1816,,,,WHITE HOUSE STATION,NJ,HUNTERDON COUNTY,04/19/1816,,8889
1816,42.6353639,-72.2620284,254,NORTH ORANGE,MA,FRANKLIN COUNTY,05/03/1816,4/24/64,
1816,42.757013,-77.0146893,221,BELLONA,NY,YATES COUNTY,05/14/1816,,14415
1816,40.1814586,-80.8875904,381,HARRISVILLE,OH,HARRISON COUNTY,06/08/1816,,43974
1816,36.2393013,-80.8445152,283,JONESVILLE,NC,YADKIN COUNTY,06/10/1816,,28642
1816,39.8978327,-84.3063343,281,UNION,OH,MONTGOMERY COUNTY,07/01/1816,11/22/63,
1816,38.8603437,-84.3977162,212,GRANTS LICK,KY,CAMPBELL COUNTY,07/08/1816,03/14/1837,
1816,37.9995703,-79.8317193,681,HOT SPRINGS,VA,BATH COUNTY,07/09/1816,,24445
1816,41.826488,-72.7300945,40,BLOOMFIELD,CT,HARTFORD COUNTY,08/31/1816,,6002
1816,40.1536742,-82.6851699,351,JOHNSTOWN,OH,LICKING COUNTY,08/31/1816,,43031
1816,41.4459271,-74.4229341,170,MIDDLETOWN,NY,ORANGE COUNTY,10/22/1816,,10940
1816,42.1939835,-71.7600702,123,MILLBURY,MA,WORCESTER COUNTY,10/23/1816,,1527
1816,41.9903787,-70.9750426,30,BRIDGEWATER,MA,PLYMOUTH COUNTY,10/24/1816,,2324
1816,40.9634335,-72.184801,10,EAST HAMPTON,NY,SUFFOLK COUNTY,10/28/1816,,11937
1816,43.1681226,-76.5729987,140,CATO,NY,CAYUGA COUNTY,10/30/1816,,13033
1816,42.0834335,-71.0183787,36,BROCKTON,MA,PLYMOUTH COUNTY,11/02/1816,,2403
1816,42.5161824,-76.9280172,263,LAKEMONT,NY,YATES COUNTY,11/02/1816,,14857
1816,44.0461658,-73.5051262,259,MORIAH,NY,ESSEX COUNTY,11/04/1816,,12960
1816,43.8486707,-73.4234531,46,TICONDEROGA,NY,ESSEX COUNTY,11/05/1816,,12883
1816,40.1187084,-76.0471691,134,BLUE BALL,PA,LANCASTER COUNTY,11/06/1816,,17506
1816,43.8745094,-72.8078849,266,ROCHESTER,VT,WINDSOR COUNTY,11/06/1816,,5767
1816,40.1798165,-76.1788391,110,EPHRATA,PA,LANCASTER COUNTY,11/12/1816,,17522
1816,41.3581545,-72.5637023,117,KILLINGWORTH,CT,MIDDLESEX COUNTY,11/20/1816,6/30/04,
1816,42.3903615,-73.7815127,32,STUYVESANT,NY,COLUMBIA COUNTY,11/22/1816,,12173
1816,39.2884381,-77.2038717,264,DAMASCUS,MD,MONTGOMERY COUNTY,11/28/1816,,20872
1816,38.1942356,-85.5644033,214,JEFFERSONTOWN,KY,JEFFERSON COUNTY,12/09/1816,5/20/66,
1816,41.8439486,-79.1450445,361,WARREN,PA,WARREN COUNTY,12/29/1816,,16365
1816,42.0970023,-79.2353259,420,JAMESTOWN,NY,CHAUTAUQUA COUNTY,12/30/1816,,14701
1816,42.1514847,-71.6495113,83,NORTHBRIDGE,MA,WORCESTER COUNTY,12/30/1816,,1534
1816,38.5725523,-90.8820811,171,AUGUSTA,MO,SAINT CHARLES COUNTY,12/31/1816,,63332
1817,42.3217519,-74.0131885,101,WOODSTOCK,NY,ULSTER COUNTY,00/00/1817,,12498
1817,,,,WOODSTOCK,ME,OXFORD COUNTY,00/00/1817,10/20/1873,
1817,37.3433974,-85.3419069,248,CAMPBELLSVILLE,KY,TAYLOR COUNTY,01/02/1817,,42718
1817,39.5069974,-84.745231,283,OXFORD,OH,BUTLER COUNTY,01/02/1817,,45056
1817,43.9503352,-73.4370667,68,CROWN POINT,NY,ESSEX COUNTY,01/13/1817,,12928
1817,38.3120197,-84.027427,262,CARLISLE,KY,NICHOLAS COUNTY,01/28/1817,,40311
1817,41.6459404,-70.6183639,13,NORTH FALMOUTH,MA,BARNSTABLE COUNTY,01/30/1817,,2556
1817,31.543226,-92.9182136,31,CLOUTIERVILLE,LA,NATCHITOCHES PARISH,02/03/1817,,71416
1817,30.2240897,-92.0198427,11,LAFAYETTE,LA,LAFAYETTE PARISH,02/06/1817,,70501
1817,38.0908796,-88.1586488,120,CARMI,IL,WHITE COUNTY,02/12/1817,,62821
1817,42.9075823,-72.0625817,454,DUBLIN,NH,CHESHIRE COUNTY,02/17/1817,,3444
1817,39.1495517,-77.0269221,149,SANDY SPRING,MD,MONTGOMERY COUNTY,02/25/1817,,20860
1817,42.553683,-76.5385529,151,LUDLOWVILLE,NY,TOMPKINS COUNTY,03/01/1817,4/30/73,
1817,40.0370565,-74.6929368,22,JOBSTOWN,NJ,BURLINGTON COUNTY,03/15/1817,,8041
1817,38.3856488,-81.836241,186,SAINT ALBANS,WV,KANAWHA COUNTY,03/21/1817,,25177
1817,39.5400672,-82.4070986,226,LOGAN,OH,HOCKING COUNTY,04/02/1817,,43138
1817,39.6356154,-84.0707681,237,BELLBROOK,OH,GREENE COUNTY,04/14/1817,,45305
1817,41.6984319,-72.081465,85,SCOTLAND,CT,WINDHAM COUNTY,04/17/1817,,6264
1817,39.0728461,-83.3868573,264,SINKING SPRING,OH,HIGHLAND COUNTY,04/17/1817,,45172
1817,35.4817432,-86.0885993,323,MANCHESTER,TN,COFFEE COUNTY,04/23/1817,,37355
1817,42.4528571,-75.0637746,339,ONEONTA,NY,OTSEGO COUNTY,05/09/1817,,13820
1817,39.7687139,-76.679693,300,SHREWSBURY,PA,YORK COUNTY,05/16/1817,,17361
1817,38.7526166,-77.9638846,186,ORLEAN,VA,FAUQUIER COUNTY,05/27/1817,,20128
1817,38.5561663,-86.468321,190,PAOLI,IN,ORANGE COUNTY,06/21/1817,,47454
1817,,,,CRIMEA,VA,DINWIDDIE COUNTY,07/01/1817,07/25/1870,
1817,34.0237125,-91.3437303,54,ARKANSAS POST,AR,ARKANSAS COUNTY,07/05/1817,8/31/41,
1817,31.7579353,-88.0897308,55,COFFEEVILLE,AL,CLARKE COUNTY,07/10/1817,,36524
1817,36.8103931,-81.6295618,605,SEVEN MILE FORD,VA,SMYTH COUNTY,09/01/1817,11/16/02,24373
1817,41.2378318,-81.9315268,248,VALLEY CITY,OH,MEDINA COUNTY,09/18/1817,,44280
1817,39.8939823,-77.3588747,237,HILLTOWN,PA,BUCKS COUNTY,09/27/1817,,18927
1817,41.9995099,-78.2689024,443,CERES,NY,ALLEGANY COUNTY,10/25/1817,,14721
1817,43.0967495,-71.4650684,64,HOOKSETT,NH,MERRIMACK COUNTY,10/25/1817,9/25/64,
1817,31.5534949,-87.1602592,130,BURNT CORN,AL,MONROE COUNTY,10/26/1817,2/15/26,
1817,42.077565,-78.4297419,441,OLEAN,NY,CATTARAUGUS COUNTY,11/10/1817,,14760
1817,40.5186809,-78.3947359,354,ALTOONA,PA,BLAIR COUNTY,11/11/1817,,16603
1817,36.6676413,-78.3874978,108,BOYDTON,VA,MECKLENBURG COUNTY,11/16/1817,,23917
1817,37.7644952,-89.3350888,128,MURPHYSBORO,IL,JACKSON COUNTY,11/24/1817,,62966
1817,41.8531485,-74.1390329,111,STONE RIDGE,NY,ULSTER COUNTY,11/24/1817,00/00/1828,
1817,41.7589823,-74.357375,90,WAWARSING,NY,ULSTER COUNTY,11/24/1817,,12489
1817,41.5767603,-74.4871031,176,WURTSBORO,NY,SULLIVAN COUNTY,11/24/1817,,12790
1817,38.654795,-83.9646491,295,GERMANTOWN,KY,BRACKEN COUNTY,12/08/1817,,41044
1817,41.8995001,-79.8453298,385,UNION CITY,PA,ERIE COUNTY,12/13/1817,,16438
1817,35.3165257,-81.1761895,242,DALLAS,NC,GASTON COUNTY,12/24/1817,,28034
1818,40.2464511,-82.9115694,294,ROME,OH,ASHTABULA COUNTY,01/17/1818,,44085
1818,39.0384274,-80.467313,311,WESTON,WV,LEWIS COUNTY,01/17/1818,,26452
1818,33.9187373,-82.1737333,136,LIBERTY HILL,SC,KERSHAW COUNTY,01/19/1818,,29074
1818,39.5420455,-77.1080376,152,NEW WINDSOR,MD,CARROLL COUNTY,01/19/1818,,21776
1818,39.6411589,-85.1410748,251,CONNERSVILLE,IN,FAYETTE COUNTY,01/24/1818,,47331
1818,40.2722923,-81.6059541,244,NEWCOMERSTOWN,OH,TUSCARAWAS COUNTY,01/28/1818,,43832
1818,38.2731318,-83.9310355,301,MOOREFIELD,KY,NICHOLAS COUNTY,01/29/1818,1/3/04,40350
1818,40.1495133,-81.0662112,390,FLUSHING,OH,BELMONT COUNTY,01/30/1818,,43977
1818,,,,MIAMI,OH,HAMILTON COUNTY,01/31/1818,5/31/04,
1818,,,,GILMANTON IRON WORKS,NH,BELKNAP COUNTY,02/07/1818,,3837
1818,40.6542515,-76.9024752,128,DALMATIA,PA,NORTHUMBERLAND COUNTY,02/09/1818,,17017
1818,39.9242425,-79.8356029,317,NEW SALEM,PA,FAYETTE COUNTY,02/14/1818,,15468
1818,38.5798446,-77.9788854,136,RIXEYVILLE,VA,CULPEPER COUNTY,02/16/1818,,22737
1818,41.4273202,-72.2145238,57,CHESTERFIELD,CT,NEW LONDON COUNTY,02/17/1818,1/30/04,
1818,41.6109269,-73.7129076,115,BEEKMAN,NY,DUTCHESS COUNTY,02/18/1818,9/30/03,
1818,41.2528738,-73.2973394,121,EASTON,CT,FAIRFIELD COUNTY,02/20/1818,12/31/00,
1818,37.9747644,-87.5558482,118,EVANSVILLE,IN,VANDENBURGH COUNTY,02/20/1818,,47708
1818,42.8484003,-75.8543591,398,NEW WOODSTOCK,NY,MADISON COUNTY,02/23/1818,,13122
1818,43.409803,-70.9883973,137,MILTON,NH,STRAFFORD COUNTY,03/03/1818,,3851
1818,,,,TAYLORS STORE,VA,FRANKLIN COUNTY,03/11/1818,12/15/33,
1818,43.223953,-77.186092,135,WILLIAMSON,NY,WAYNE COUNTY,03/11/1818,,14589
1818,42.7570192,-74.330409,207,SLOANSVILLE,NY,SCHOHARIE COUNTY,03/13/1818,,12160
1818,37.8009714,-76.5696761,30,LITWALTON,VA,LANCASTER COUNTY,03/19/1818,9/30/60,
1818,40.5992324,-80.4728444,309,HOOKSTOWN,PA,BEAVER COUNTY,03/20/1818,,15050
1818,38.592563,-85.3177344,275,BEDFORD,KY,TRIMBLE COUNTY,03/23/1818,,40006
1818,,,,SULLIVAN,PA,TIOGA COUNTY,03/23/1818,8/31/04,
1818,43.0297887,-76.0043643,163,FAYETTEVILLE,NY,ONONDAGA COUNTY,04/10/1818,,13066
1818,41.7464652,-75.8982517,460,DIMOCK,PA,SUSQUEHANNA COUNTY,04/13/1818,,18816
1818,39.8289369,-84.8902383,299,RICHMOND,IN,WAYNE COUNTY,04/20/1818,,47374
1818,39.0770072,-84.1768795,181,BATAVIA,OH,CLERMONT COUNTY,04/24/1818,,45103
1818,40.7231401,-77.015815,172,MOUNT PLEASANT MILLS,PA,SNYDER COUNTY,04/30/1818,,17853
1818,43.146194,-71.2164524,159,DEERFIELD,NH,ROCKINGHAM COUNTY,05/05/1818,,3037
1818,42.4200726,-76.8488463,298,BURDETT,NY,SCHUYLER COUNTY,05/09/1818,,14818
1818,37.9336727,-85.3835654,219,FAIRFIELD,KY,NELSON COUNTY,05/18/1818,,40020
1818,39.0036537,-87.612802,137,PALESTINE,IL,CRAWFORD COUNTY,05/21/1818,,62451
1818,35.1143307,-77.8188683,44,ALBERTSON,NC,DUPLIN COUNTY,05/25/1818,,28508
1818,40.4575923,-76.2443944,177,REHRERSBURG,PA,BERKS COUNTY,05/27/1818,,19550
1818,40.8181483,-75.6726885,136,PARRYVILLE,PA,CARBON COUNTY,05/30/1818,,18244
1818,40.3823043,-77.4441543,215,PINE GROVE,PA,SCHUYLKILL COUNTY,05/30/1818,,17963
1818,42.32228,-79.5781027,227,WESTFIELD,NY,CHAUTAUQUA COUNTY,06/15/1818,,14787
1818,36.879305,-79.2416874,156,MARKHAM,VA,FAUQUIER COUNTY,06/20/1818,,22643
1818,39.0287239,-74.9385068,3,VILLAS,NJ,CAPE MAY COUNTY,06/20/1818,,8251
1818,37.8978275,-88.9314583,122,WEST FRANKFORT,IL,FRANKLIN COUNTY,06/22/1818,,62896
1818,35.2423023,-87.3347389,273,LAWRENCEBURG,TN,LAWRENCE COUNTY,06/23/1818,,38464
1818,42.5564517,-78.1527873,471,PIKE,NY,WYOMING COUNTY,07/04/1818,,14130
1818,43.2122851,-77.4299939,136,WEBSTER,NY,MONROE COUNTY,07/22/1818,,14580
1818,42.6659227,-71.5884018,75,PEPPERELL,MA,MIDDLESEX COUNTY,07/27/1818,,1463
1818,38.1211819,-85.9741324,222,ELIZABETH,IN,HARRISON COUNTY,08/01/1818,,47117
1818,43.3214646,-72.0359175,339,NEWBURY,NH,MERRIMACK COUNTY,09/26/1818,,3255
1818,42.6609026,-77.0538577,222,PENN YAN,NY,YATES COUNTY,09/26/1818,,14527
1818,42.7256184,-77.8741695,192,MOUNT MORRIS,NY,LIVINGSTON COUNTY,10/03/1818,,14510
1818,42.4520332,-72.5014759,139,LEVERETT,MA,FRANKLIN COUNTY,10/06/1818,,1054
1818,40.109818,-76.5032996,116,MOUNT JOY,PA,LANCASTER COUNTY,12/01/1818,,17552
1818,43.1378556,-72.5098115,142,SAXTONS RIVER,VT,WINDHAM COUNTY,12/02/1818,,5154
1818,43.1717435,-72.6062031,256,GRAFTON,VT,WINDHAM COUNTY,12/04/1818,,5146
1818,40.8623217,-73.6337389,7,GLEN COVE,NY,NASSAU COUNTY,12/12/1818,,11542
1818,34.79981,-87.677251,167,FLORENCE,AL,LAUDERDALE COUNTY,12/14/1818,,35630
1818,42.4098033,-74.1523599,196,OAK HILL,NY,GREENE COUNTY,12/19/1818,,12460
1818,37.8187439,-79.3192012,438,BLACKSBURG,VA,MONTGOMERY COUNTY,12/24/1818,,24060
1818,40.0870183,-79.7505971,308,PERRYOPOLIS,PA,FAYETTE COUNTY,12/24/1818,,15473
1818,40.1003509,-79.840601,233,FAYETTE CITY,PA,FAYETTE COUNTY,12/31/1818,,15438
1819,42.469238,-75.8929758,354,GEORGETOWN,NY,MADISON COUNTY,01/04/1819,,13072
1819,42.4773097,-72.6078667,60,SOUTH DEERFIELD,MA,FRANKLIN COUNTY,01/05/1819,,1373
1819,44.8061682,-70.2711766,145,AVON,ME,FRANKLIN COUNTY,01/08/1819,05/27/1875,
1819,44.8231128,-70.3395105,173,PHILLIPS,ME,FRANKLIN COUNTY,01/08/1819,,4966
1819,44.1900592,-72.8248379,217,WAITSFIELD,VT,WASHINGTON COUNTY,01/08/1819,,5673
1819,44.112005,-72.8559474,279,WARREN,VT,WASHINGTON COUNTY,01/08/1819,,5674
1819,44.9231142,-69.6728296,106,ATHENS,ME,SOMERSET COUNTY,01/09/1819,,4912
1819,44.9739462,-69.5461603,93,HARMONY,ME,SOMERSET COUNTY,01/19/1819,,4942
1819,34.628425,-86.8802819,175,MOORESVILLE,AL,LIMESTONE COUNTY,01/21/1819,,35649
1819,38.4331164,-86.1897001,187,FREDERICKSBURG,IN,WASHINGTON COUNTY,01/25/1819,,47120
1819,43.1003556,-72.7784296,218,JAMAICA,VT,WINDHAM COUNTY,01/25/1819,,5343
1819,37.9086568,-88.1292021,112,NEW HAVEN,IL,GALLATIN COUNTY,01/25/1819,,62867
1819,38.6570651,-78.2261122,210,SPERRYVILLE,VA,RAPPAHANNOCK COUNTY,01/25/1819,,22740
1819,32.7045753,-87.5958396,86,GREENSBORO,AL,HALE COUNTY,02/03/1819,,36744
1819,41.2503396,-79.4594904,421,SHIPPENVILLE,PA,CLARION COUNTY,02/09/1819,,16254
1819,41.3906111,-80.9734255,265,WEST FARMINGTON,OH,TRUMBULL COUNTY,02/14/1819,,44491
1819,41.6661573,-81.339552,211,MENTOR,OH,LAKE COUNTY,02/16/1819,,44060
1819,40.112573,-79.3825351,552,DONEGAL,PA,WESTMORELAND COUNTY,02/18/1819,,15628
1819,,,,OLD WASHINGTON COURT HOUSE,AL,CHOCTAW COUNTY,02/25/1819,03/20/1860,
1819,38.1450772,-84.1113165,279,NORTH MIDDLETOWN,KY,BOURBON COUNTY,03/02/1819,,40357
1819,34.807344,-82.129831,249,CASHVILLE,SC,SPARTANBURG COUNTY,03/04/1819,10/04/1866,
1819,40.5395289,-76.9608103,131,MILLERSBURG,PA,DAUPHIN COUNTY,03/06/1819,,17061
1819,41.4489397,-82.7079605,181,SANDUSKY,OH,ERIE COUNTY,03/06/1819,,44870
1819,38.6103264,-89.3725796,139,CARLYLE,IL,CLINTON COUNTY,03/10/1819,,62231
1819,41.3348169,-73.5712374,154,NORTH SALEM,NY,WESTCHESTER COUNTY,03/12/1819,,10560
1819,39.6644924,-85.0046842,242,BROWNSVILLE,IN,UNION COUNTY,03/13/1819,,47325
1819,38.9595078,-84.3879946,269,ALEXANDRIA,KY,CAMPBELL COUNTY,03/17/1819,,41001
1819,42.1675975,-71.3578357,53,MILLIS,MA,NORFOLK COUNTY,03/17/1819,,2054
1819,42.7720066,-77.8966709,198,LEICESTER,NY,LIVINGSTON COUNTY,03/18/1819,,14481
1819,40.6531159,-81.5809564,306,BEACH CITY,OH,STARK COUNTY,03/29/1819,,44608
1819,40.6945024,-81.7031847,381,MOUNT EATON,OH,WAYNE COUNTY,03/29/1819,,44659
1819,38.7931251,-84.140766,152,CHILO,OH,CLERMONT COUNTY,04/01/1819,,45112
1819,40.32899,-75.4510114,63,SUMNEYTOWN,PA,MONTGOMERY COUNTY,04/02/1819,,18084
1819,45.0383951,-69.1603205,112,GARLAND,ME,PENOBSCOT COUNTY,04/06/1819,,4939
1819,38.5631176,-85.5396829,219,NEW WASHINGTON,IN,CLARK COUNTY,04/06/1819,,47162
1819,39.0719988,-85.2519035,294,VERSAILLES,IN,RIPLEY COUNTY,04/09/1819,,47042
1819,45.8491796,-84.6189339,181,MACKINAC ISLAND,MI,MACKINAC COUNTY,04/14/1819,,49757
1819,35.0742448,-85.6260789,191,JASPER,TN,MARION COUNTY,04/16/1819,,37347
1819,41.1383878,-81.8637474,332,MEDINA,OH,MEDINA COUNTY,04/24/1819,,44256
1819,37.1379265,-76.8352384,37,SURRY,VA,SURRY COUNTY,04/24/1819,,23883
1819,42.2703636,-74.3029229,549,JEWETT,NY,GREENE COUNTY,05/31/1819,,12444
1819,39.611187,-80.9401037,198,LODI,OH,MEDINA COUNTY,05/31/1819,,44254
1819,42.4717451,-74.8446009,398,DAVENPORT,NY,DELAWARE COUNTY,06/01/1819,,13750
1819,38.9417359,-83.6507541,296,WINCHESTER,OH,ADAMS COUNTY,06/03/1819,,45697
1819,38.9736392,-92.7432418,204,BOONVILLE,MO,COOPER COUNTY,07/13/1819,,65233
1819,,,,MC CONNELSVILLE,OH,MORGAN COUNTY,07/14/1819,,43756
1819,43.143397,-77.1891469,140,MARION,NY,WAYNE COUNTY,07/28/1819,,14505
1819,38.9250486,-90.3417806,132,PORTAGE DES SIOUX,MO,SAINT CHARLES COUNTY,07/29/1819,01/01/1827,
1819,38.3775484,-88.0561465,159,ALBION,IL,EDWARDS COUNTY,08/05/1819,,62806
1819,39.4489351,-91.0515256,148,LOUISIANA,MO,PIKE COUNTY,08/14/1819,,63353
1819,,,,GAMBLE'S,PA,ALLEGHENY COUNTY,08/17/1819,10/22/1895,
1819,42.9958962,-77.6455564,168,RUSH,NY,MONROE COUNTY,08/19/1819,,14543
1819,42.8711731,-77.8852838,239,YORK,NY,LIVINGSTON COUNTY,08/20/1819,,14592
1819,42.228136,-75.5265715,305,AFTON,NY,CHENANGO COUNTY,08/26/1819,,13730
1819,39.3956423,-80.3000866,283,SHINNSTON,WV,HARRISON COUNTY,09/18/1819,,26431
1819,,,,MC ALISTERVILLE,PA,JUNIATA COUNTY,09/21/1819,,17049
1819,43.0258957,-77.7452826,185,SCOTTSVILLE,NY,MONROE COUNTY,10/05/1819,,14546
1819,30.3088076,-89.3300461,7,BAY SAINT LOUIS,MS,HANCOCK COUNTY,10/11/1819,,39520
1819,42.4445237,-74.207917,258,PRESTON HOLLOW,NY,ALBANY COUNTY,10/15/1819,,12469
1819,41.7603259,-81.1409322,213,PERRY,OH,LAKE COUNTY,10/18/1819,,44081
1819,31.2518439,-89.83758,43,COLUMBIA,MS,MARION COUNTY,11/01/1819,,39429
1819,44.8831249,-68.671977,38,ORONO,ME,PENOBSCOT COUNTY,11/01/1819,,4473
1819,38.1997869,-86.3441439,201,LEAVENWORTH,IN,CRAWFORD COUNTY,11/08/1819,,47137
1819,42.9011709,-78.3886312,310,DARIEN CENTER,NY,GENESEE COUNTY,11/17/1819,,14040
1819,40.8759235,-75.7324127,220,JIM THORPE,PA,CARBON COUNTY,11/23/1819,,18229
1819,32.5176361,-87.836402,37,DEMOPOLIS,AL,MARENGO COUNTY,12/24/1819,,36732
1819,41.8317661,-71.5872858,93,NORTH SCITUATE,RI,PROVIDENCE COUNTY,12/25/1819,,2857
1819,39.0570022,-84.9013402,148,AURORA,IN,DEARBORN COUNTY,12/30/1819,,47001
1820,40.8992646,-73.2962268,17,MIDDLEVILLE,NY,HERKIMER COUNTY,01/01/1820,,13406
1820,38.5551208,-76.8419136,44,BRYANTOWN,MD,CHARLES COUNTY,01/03/1820,,20617
1820,38.2812203,-80.8525981,573,SUMMERSVILLE,WV,NICHOLAS COUNTY,01/07/1820,,26651
1820,38.0492132,-87.2741723,129,BOONVILLE,IN,WARRICK COUNTY,01/08/1820,,47601
1820,40.9145008,-82.7724025,314,MECHANICSBURG,OH,CHAMPAIGN COUNTY,01/12/1820,,43044
1820,44.2508918,-72.7609496,183,MORETOWN,VT,WASHINGTON COUNTY,01/14/1820,,5660
1820,40.1306588,-75.5721388,63,KIMBERTON,PA,CHESTER COUNTY,01/15/1820,,19442
1820,42.652282,-78.8969785,250,EDEN,NY,ERIE COUNTY,01/18/1820,,14057
1820,42.000376,-71.579786,80,SLATERSVILLE,RI,PROVIDENCE COUNTY,01/24/1820,,2876
1820,42.6934166,-72.899542,412,ROWE,MA,FRANKLIN COUNTY,01/27/1820,,1367
1820,41.7839873,-72.0547977,203,HAMPTON,CT,WINDHAM COUNTY,01/29/1820,,6247
1820,41.4306494,-74.1190335,93,SALISBURY MILLS,NY,ORANGE COUNTY,02/03/1820,,12577
1820,41.1306041,-85.1288597,247,FORT WAYNE,IN,ALLEN COUNTY,02/04/1820,,46802
1820,44.3061725,-71.7700885,251,LITTLETON,NH,GRAFTON COUNTY,02/08/1820,,3561
1820,42.6139597,-76.8224557,337,LODI,NY,SENECA COUNTY,02/08/1820,,14860
1820,43.1864501,-77.8038972,169,SPENCERPORT,NY,MONROE COUNTY,02/11/1820,,14559
1820,36.3836748,-90.8756761,103,WASHINGTON,AR,HEMPSTEAD COUNTY,02/23/1820,,71862
1820,43.0481221,-76.1474244,121,SYRACUSE,NY,ONONDAGA COUNTY,02/24/1820,,13220
1820,42.5084053,-76.6149456,312,JACKSONVILLE,NY,TOMPKINS COUNTY,02/25/1820,,14854
1820,41.0328353,-81.248437,351,RANDOLPH,OH,PORTAGE COUNTY,03/04/1820,,44265
1820,42.3503514,-75.8104719,309,GENEGANTSLET,NY,CHENANGO COUNTY,03/08/1820,12/31/1861,
1820,40.8759324,-73.5970707,39,LOCUST VALLEY,NY,NASSAU COUNTY,03/13/1820,,11560
1820,39.3242679,-79.5544989,806,AURORA,WV,PRESTON COUNTY,03/18/1820,,26705
1820,40.7544843,-86.3566659,195,LOGANSPORT,IN,CASS COUNTY,03/20/1820,,46947
1820,34.2978794,-83.8240663,381,GAINESVILLE,GA,HALL COUNTY,03/22/1820,,30501
1820,42.3922869,-78.2536243,457,RUSHFORD,NY,ALLEGANY COUNTY,03/25/1820,,14777
1820,42.4042433,-75.4896253,453,GUILFORD,NY,CHENANGO COUNTY,03/30/1820,,13780
1820,42.4709109,-74.4454234,241,NORTH BLENHEIM,NY,SCHOHARIE COUNTY,04/03/1820,,12131
1820,40.7767611,-75.608242,116,LEHIGH GAP,PA,NORTHAMPTON COUNTY,04/06/1820,11/00/1822,
1820,35.2831355,-86.3741588,245,LYNCHBURG,TN,MOORE COUNTY,04/06/1820,,37352
1820,36.4345934,-77.9119317,118,LITTLETON,NC,HALIFAX COUNTY,04/07/1820,,27850
1820,35.6867372,-87.2194537,191,WILLIAMSPORT,TN,MAURY COUNTY,04/08/1820,,38487
1820,34.7464809,-92.2895948,102,LITTLE ROCK,AR,PULASKI COUNTY,04/10/1820,,72231
1820,38.3226154,-75.2176892,11,BERLIN,MD,WORCESTER COUNTY,04/11/1820,,21811
1820,42.6289495,-78.7375289,287,BOSTON,NY,ERIE COUNTY,04/13/1820,,14025
1820,40.8676003,-72.5278675,6,SPRINGVILLE,NY,ERIE COUNTY,04/13/1820,,14141
1820,40.9009313,-73.3431727,18,NORTHPORT,NY,SUFFOLK COUNTY,04/15/1820,,11768
1820,43.0042365,-75.2598859,264,SAUQUOIT,NY,ONEIDA COUNTY,05/01/1820,,13456
1820,43.9400658,-72.5551015,185,EAST RANDOLPH,VT,ORANGE COUNTY,05/04/1820,,5041
1820,42.9817273,-78.0739023,272,STAFFORD,NY,GENESEE COUNTY,05/09/1820,,14143
1820,33.7948364,-83.713229,278,MONROE,GA,WALTON COUNTY,05/20/1820,,30655
1820,37.7983756,-87.7619645,125,SMITH MILLS,KY,HENDERSON COUNTY,05/22/1820,,42457
1820,40.6117522,-76.7185777,249,GRATZ,PA,DAUPHIN COUNTY,06/02/1820,,17030
1820,36.7434169,-84.1596561,283,WILLIAMSBURG,KY,WHITLEY COUNTY,06/14/1820,,40769
1820,42.1620431,-71.2106086,39,EAST WALPOLE,MA,NORFOLK COUNTY,06/27/1820,,2032
1820,40.1950811,-77.9830565,225,THREE SPRINGS,PA,HUNTINGDON COUNTY,07/01/1820,,17264
1820,42.2750639,-78.6728071,472,ELLICOTTVILLE,NY,CATTARAUGUS COUNTY,07/04/1820,,14731
1820,42.3370091,-78.4580762,485,FRANKLINVILLE,NY,CATTARAUGUS COUNTY,07/05/1820,,14737
1820,43.9231239,-71.8920283,231,WARREN,NH,GRAFTON COUNTY,07/05/1820,,3279
1820,43.0797824,-78.0639037,189,BYRON,NY,GENESEE COUNTY,07/13/1820,,14422
1820,39.4006285,-81.9556956,193,AMESVILLE,OH,ATHENS COUNTY,07/14/1820,,45711
1820,29.6932641,-91.3020502,3,PATTERSON,LA,SAINT MARY PARISH,07/15/1820,,70392
1820,42.9011711,-78.2566834,284,ALEXANDER,NY,GENESEE COUNTY,07/17/1820,,14005
1820,41.452819,-82.1823746,186,LORAIN,OH,LORAIN COUNTY,07/25/1820,,44052
1820,33.8732279,-78.6141798,11,LITTLE RIVER,SC,HORRY COUNTY,08/15/1820,,29566
1820,,,,MORGANS SETTLEMENT,OH,HOLMES COUNTY,08/15/1820,08/26/1830,
1820,41.5256494,-74.1529237,135,COLDENHAM,NY,ORANGE COUNTY,08/18/1820,1/31/05,
1820,39.5853222,-91.4009835,200,NEW LONDON,MO,RALLS COUNTY,08/29/1820,,63459
1820,42.4711829,-76.9274616,268,ROCK STREAM,NY,YATES COUNTY,09/19/1820,,14878
1820,39.3850039,-94.2627226,278,GREENVILLE,MO,WAYNE COUNTY,09/23/1820,,63944
1820,40.3611643,-83.7596557,379,BELLEFONTAINE,OH,LOGAN COUNTY,10/11/1820,,43311
1820,43.3378336,-78.7147571,83,OLCOTT,NY,NIAGARA COUNTY,10/23/1820,,14126
1820,39.02756,-84.7241133,256,BURLINGTON,KY,BOONE COUNTY,11/10/1820,,41005
1820,35.362855,-84.294087,267,TELLICO PLAINS,TN,MONROE COUNTY,11/25/1820,,37385
1820,32.3668052,-86.2999689,73,MONTGOMERY,AL,MONTGOMERY COUNTY,11/27/1820,,36119
1820,41.0031141,-80.7856355,364,DUBLIN,OH,FRANKLIN COUNTY,12/09/1820,,43017
1820,40.8337029,-75.7138008,174,LEHIGHTON,PA,CARBON COUNTY,12/09/1820,,18235
1820,39.2217427,-81.7973557,213,COOLVILLE,OH,ATHENS COUNTY,12/11/1820,,45723
1820,39.4850848,-80.1425781,300,FAIRMONT,WV,MARION COUNTY,12/11/1820,,26554
1820,38.9517053,-92.3340724,215,COLUMBIA,MO,BOONE COUNTY,12/14/1820,,65201
1820,42.0714907,-70.8092074,25,PEMBROKE,MA,PLYMOUTH COUNTY,12/22/1820,,2359
1820,42.6320389,-70.7828255,7,ESSEX,MA,ESSEX COUNTY,12/25/1820,,1929
1820,40.6695453,-74.9240573,86,UNION,NJ,UNION COUNTY,12/25/1820,,7083
1820,41.1536674,-81.357886,324,KENT,OH,PORTAGE COUNTY,12/28/1820,,44240
1820,41.6376043,-70.9036487,6,FAIRHAVEN,MA,BRISTOL COUNTY,12/30/1820,,2719
1821,0,0,303,BAINBRIDGE,MO,CAPE GIRARDEAU COUNTY,00/00/1821,06/13/1835,
1821,37.9251205,-80.3845197,670,FRANKFORD,WV,GREENBRIER COUNTY,00/00/1821,,24938
1821,42.5972563,-82.8779754,185,MOUNT CLEMENS,MI,MACOMB COUNTY,01/12/1821,,48046
1821,41.7209267,-73.9601382,53,HIGHLAND,NY,ULSTER COUNTY,01/25/1821,,12528
1821,43.9275797,-69.9758839,40,TOPSHAM,ME,SAGADAHOC COUNTY,02/06/1821,,4086
1821,37.3823636,-79.3578068,279,NORWOOD,VA,NELSON COUNTY,02/07/1821,,24581
1821,43.2064567,-76.459104,126,LYSANDER,NY,ONONDAGA COUNTY,02/08/1821,4/20/96,13094
1821,43.3822948,-72.6384277,288,PROCTORSVILLE,VT,WINDSOR COUNTY,02/09/1821,,5153
1821,42.0639841,-72.4134168,95,HAMPDEN,MA,HAMPDEN COUNTY,02/14/1821,,1036
1821,41.0323078,-76.3079936,157,MIFFLINVILLE,PA,COLUMBIA COUNTY,02/17/1821,,18631
1821,43.0178575,-72.3211975,175,SURRY,NH,CHESHIRE COUNTY,02/21/1821,2/28/59,
1821,39.5522815,-84.2332718,236,SPRINGBORO,OH,WARREN COUNTY,03/03/1821,,45066
1821,43.4422993,-71.5889641,139,TILTON,NH,BELKNAP COUNTY,03/05/1821,,3276
1821,,,,TULLYTON,SC,GREENVILLE COUNTY,03/05/1821,07/11/1848,
1821,40.6033996,-78.3247365,321,BELLWOOD,PA,BLAIR COUNTY,03/06/1821,,16617
1821,43.0772818,-78.1869623,232,ELBA,NY,GENESEE COUNTY,03/07/1821,,14058
1821,42.3620178,-76.5907784,320,NEWFIELD,NY,TOMPKINS COUNTY,03/08/1821,,14867
1821,40.152331,-75.266289,109,BLUE BELL,PA,MONTGOMERY COUNTY,03/10/1821,,19422
1821,,,,MOUNT DESERT,ME,HANCOCK COUNTY,03/12/1821,,4660
1821,41.1389875,-72.303415,4,ORIENT,NY,SUFFOLK COUNTY,03/20/1821,,11957
1821,41.7711633,-81.049819,222,MADISON,OH,LAKE COUNTY,03/26/1821,,44057
1821,39.2850799,-80.9684422,264,PENNSBORO,WV,RITCHIE COUNTY,03/29/1821,,26415
1821,42.2175668,-78.2752927,456,CUBA,NY,CATTARAUGUS COUNTY,03/31/1821,,14727
